{
"type": "FeatureCollection",
"name": "pfa",
"crs": { "type": "name", "properties": { "name": "urn:ogc:def:crs:OGC:1.3:CRS84" } },
"features": [
{ "type": "Feature", "properties": { "FID": 1, "NAME": "CRAWFORD LAKE", "ALIAS": null, "WATER_BODY": "CRAWFORD LAKE", "MAINTENANC": "WRC SANDHILLS DEPOT", "COUNTY": "SCOTLAND", "CANOE_ACCE": "Y", "PICNIC_ARE": "N", "RESTROOM": "N", "TRASH_CAN": "N", "FISH_FEED": "N", "MOTOR_REST": "N", "ADA_DOCK_T": "N", "ADA_PAVED_": "N", "ADA_PARK_S": 0, "ADA_NOTES": null, "CAUTION": null, "FIX_PIER_N": 0, "FIX_PIER_T": null, "FLOAT_PIER": 0, "FLT_PIER_T": null, "PARK_SPACE": 4, "PARK_COVER": "UNPAVED", "LIGHTS": "N", "STREET": "24080 CRAWFORD LAKE RD", "CITY": "LAUREL HILL", "STATE": "NC", "ZIP": 28351, "LATITUDE": 34.894444829100003, "LONGITUDE": -79.566697127500007, "GAMELAND": "SANDHILLS", "BAA": null }, "geometry": { "type": "Point", "coordinates": [ 557808.010399997, 127101.548 ] } },
{ "type": "Feature", "properties": { "FID": 2, "NAME": "GUM SWAMP", "ALIAS": null, "WATER_BODY": "GUM SWAMP LAKE", "MAINTENANC": "WRC SANDHILLS DEPOT", "COUNTY": "SCOTLAND", "CANOE_ACCE": "Y", "PICNIC_ARE": "N", "RESTROOM": "N", "TRASH_CAN": "N", "FISH_FEED": "N", "MOTOR_REST": "N", "ADA_DOCK_T": "N", "ADA_PAVED_": "N", "ADA_PARK_S": 0, "ADA_NOTES": null, "CAUTION": null, "FIX_PIER_N": 0, "FIX_PIER_T": null, "FLOAT_PIER": 0, "FLT_PIER_T": null, "PARK_SPACE": 4, "PARK_COVER": "UNPAVED", "LIGHTS": "N", "STREET": "349 GUM SWAMP RD", "CITY": "HAMLET", "STATE": "NC", "ZIP": 28345, "LATITUDE": 34.9109545524, "LONGITUDE": -79.561680859099994, "GAMELAND": "SANDHILLS", "BAA": null }, "geometry": { "type": "Point", "coordinates": [ 558276.828699999, 128930.282299999 ] } },
{ "type": "Feature", "properties": { "FID": 3, "NAME": "KINNEY CAMERON", "ALIAS": null, "WATER_BODY": "KINNEY CAMERON LAKE", "MAINTENANC": "WRC SANDHILLS DEPOT", "COUNTY": "SCOTLAND", "CANOE_ACCE": "Y", "PICNIC_ARE": "N", "RESTROOM": "N", "TRASH_CAN": "N", "FISH_FEED": "N", "MOTOR_REST": "N", "ADA_DOCK_T": "N", "ADA_PAVED_": "N", "ADA_PARK_S": 0, "ADA_NOTES": null, "CAUTION": null, "FIX_PIER_N": 0, "FIX_PIER_T": null, "FLOAT_PIER": 0, "FLT_PIER_T": null, "PARK_SPACE": 4, "PARK_COVER": "UNPAVED", "LIGHTS": "N", "STREET": "34888 HOFFMAN RD", "CITY": "MARSTON", "STATE": "NC", "ZIP": 28363, "LATITUDE": 34.994813642099999, "LONGITUDE": -79.543892444500003, "GAMELAND": "SANDHILLS", "BAA": null }, "geometry": { "type": "Point", "coordinates": [ 559953.219899997, 138223.335999999 ] } },
{ "type": "Feature", "properties": { "FID": 4, "NAME": "NEWBOLD POND", "ALIAS": "ROBERT E BARNHILL SR", "WATER_BODY": "NEWBOLD POND", "MAINTENANC": "WRC WILLIMASTON DEPOT", "COUNTY": "EDGECOMBE", "CANOE_ACCE": "N", "PICNIC_ARE": "N", "RESTROOM": "N", "TRASH_CAN": "N", "FISH_FEED": "N", "MOTOR_REST": "Y", "ADA_DOCK_T": "Y", "ADA_PAVED_": "Y", "ADA_PARK_S": 3, "ADA_NOTES": null, "CAUTION": null, "FIX_PIER_N": 0, "FIX_PIER_T": null, "FLOAT_PIER": 1, "FLT_PIER_T": "T", "PARK_SPACE": 30, "PARK_COVER": "UNPAVED", "LIGHTS": "Y", "STREET": "1417 SHILOH FARM RD", "CITY": "TARBORO", "STATE": "NC", "ZIP": 27886, "LATITUDE": 35.865865166200003, "LONGITUDE": -77.500617267099997, "GAMELAND": null, "BAA": null }, "geometry": { "type": "Point", "coordinates": [ 745005.0213999969, 235740.849199999 ] } },
{ "type": "Feature", "properties": { "FID": 5, "NAME": "ETHERIDGE POND", "ALIAS": "ROBERT E BARNHILL SR", "WATER_BODY": "ETHERIDGE POND", "MAINTENANC": "WRC WILLIMASTON DEPOT", "COUNTY": "EDGECOMBE", "CANOE_ACCE": "Y", "PICNIC_ARE": "N", "RESTROOM": "N", "TRASH_CAN": "N", "FISH_FEED": "N", "MOTOR_REST": "Y", "ADA_DOCK_T": "Y", "ADA_PAVED_": "Y", "ADA_PARK_S": 3, "ADA_NOTES": null, "CAUTION": null, "FIX_PIER_N": 0, "FIX_PIER_T": null, "FLOAT_PIER": 1, "FLT_PIER_T": "T", "PARK_SPACE": 50, "PARK_COVER": "UNPAVED", "LIGHTS": "Y", "STREET": "335 JENKINS ST", "CITY": "TARBORO", "STATE": "NC", "ZIP": 27886, "LATITUDE": 35.869989637400003, "LONGITUDE": -77.527977281099993, "GAMELAND": null, "BAA": null }, "geometry": { "type": "Point", "coordinates": [ 742527.635499999, 236161.425700001 ] } },
{ "type": "Feature", "properties": { "FID": 6, "NAME": "AURORA", "ALIAS": null, "WATER_BODY": "SOUTH CREEK", "MAINTENANC": "WRC NEW BERN DEPOT", "COUNTY": "BEAUFORT", "CANOE_ACCE": "Y", "PICNIC_ARE": "N", "RESTROOM": "N", "TRASH_CAN": "N", "FISH_FEED": "N", "MOTOR_REST": "N", "ADA_DOCK_T": "Y", "ADA_PAVED_": "Y", "ADA_PARK_S": 2, "ADA_NOTES": null, "CAUTION": null, "FIX_PIER_N": 1, "FIX_PIER_T": "T", "FLOAT_PIER": 0, "FLT_PIER_T": null, "PARK_SPACE": 26, "PARK_COVER": "PAVED", "LIGHTS": "Y", "STREET": "1 MAIN ST", "CITY": "AURORA", "STATE": "NC", "ZIP": 27806, "LATITUDE": 35.304681044699997, "LONGITUDE": -76.779815807199995, "GAMELAND": null, "BAA": null }, "geometry": { "type": "Point", "coordinates": [ 811481.165700004, 174718.385400001 ] } },
{ "type": "Feature", "properties": { "FID": 7, "NAME": "BRICES CREEK", "ALIAS": null, "WATER_BODY": "BRICES CREEK", "MAINTENANC": "WRC NEW BERN DEPOT", "COUNTY": "CRAVEN", "CANOE_ACCE": "Y", "PICNIC_ARE": "N", "RESTROOM": "Y", "TRASH_CAN": "N", "FISH_FEED": "N", "MOTOR_REST": "N", "ADA_DOCK_T": "Y", "ADA_PAVED_": "Y", "ADA_PARK_S": 1, "ADA_NOTES": null, "CAUTION": null, "FIX_PIER_N": 1, "FIX_PIER_T": "STRAIGHT", "FLOAT_PIER": 0, "FLT_PIER_T": null, "PARK_SPACE": 15, "PARK_COVER": "UNPAVED", "LIGHTS": "N", "STREET": "953 PERRYTOWN RD", "CITY": "NEW BERN", "STATE": "NC", "ZIP": 28562, "LATITUDE": 35.049381038, "LONGITUDE": -77.048893939799996, "GAMELAND": "CROATAN", "BAA": "BRICES CREEK" }, "geometry": { "type": "Point", "coordinates": [ 787574.0167, 145889.405000001 ] } },
{ "type": "Feature", "properties": { "FID": 8, "NAME": "MANTEO", "ALIAS": "WASHINGTON BAUM BRIDGE", "WATER_BODY": "ROANOKE SOUND", "MAINTENANC": "WRC COLUMBIA DEPOT", "COUNTY": "DARE", "CANOE_ACCE": "N", "PICNIC_ARE": "N", "RESTROOM": "Y", "TRASH_CAN": "Y", "FISH_FEED": "N", "MOTOR_REST": "N", "ADA_DOCK_T": "Y", "ADA_PAVED_": "N", "ADA_PARK_S": 3, "ADA_NOTES": null, "CAUTION": null, "FIX_PIER_N": 1, "FIX_PIER_T": "L", "FLOAT_PIER": 0, "FLT_PIER_T": null, "PARK_SPACE": 65, "PARK_COVER": "PAVED", "LIGHTS": "Y", "STREET": "1205 US HWY 64\/264", "CITY": "MANTEO", "STATE": "NC", "ZIP": 27954, "LATITUDE": 35.893972154499998, "LONGITUDE": -75.637623869500004, "GAMELAND": null, "BAA": "WASHINGTON BAUM BRIDGE" }, "geometry": { "type": "Point", "coordinates": [ 913093.0625, 242976.9791 ] } },
{ "type": "Feature", "properties": { "FID": 9, "NAME": "WILLIAMSBORO WAYSIDE", "ALIAS": null, "WATER_BODY": "KERR LAKE", "MAINTENANC": "WRC WELDON\/TILLERY DEPOT", "COUNTY": "VANCE", "CANOE_ACCE": "N", "PICNIC_ARE": "N", "RESTROOM": "N", "TRASH_CAN": "N", "FISH_FEED": "N", "MOTOR_REST": "N", "ADA_DOCK_T": "N", "ADA_PAVED_": "N", "ADA_PARK_S": 0, "ADA_NOTES": null, "CAUTION": null, "FIX_PIER_N": 1, "FIX_PIER_T": "STRAIGHT", "FLOAT_PIER": 0, "FLT_PIER_T": null, "PARK_SPACE": 30, "PARK_COVER": "UNPAVED", "LIGHTS": "N", "STREET": "6100 NC HWY 39 N", "CITY": "HENDERSON", "STATE": "NC", "ZIP": 27537, "LATITUDE": 36.4130484951, "LONGITUDE": -78.4178816063, "GAMELAND": null, "BAA": null }, "geometry": { "type": "Point", "coordinates": [ 661815.876400001, 295587.460099999 ] } },
{ "type": "Feature", "properties": { "FID": 10, "NAME": "NUTBUSH BRIDGE", "ALIAS": null, "WATER_BODY": "KERR LAKE", "MAINTENANC": "WRC WELDON\/TILLERY DEPOT", "COUNTY": "VANCE", "CANOE_ACCE": "N", "PICNIC_ARE": "N", "RESTROOM": "N", "TRASH_CAN": "N", "FISH_FEED": "N", "MOTOR_REST": "N", "ADA_DOCK_T": "N", "ADA_PAVED_": "N", "ADA_PARK_S": 0, "ADA_NOTES": null, "CAUTION": "FISHING FROM A BOARDWALK ALONG THE BRIDGE OVER THE LAKE.", "FIX_PIER_N": 0, "FIX_PIER_T": null, "FLOAT_PIER": 0, "FLT_PIER_T": null, "PARK_SPACE": 15, "PARK_COVER": "UNPAVED", "LIGHTS": "N", "STREET": "1848 NUTBUSH RD", "CITY": "HENDERSON", "STATE": "NC", "ZIP": 27573, "LATITUDE": 36.408352298700002, "LONGITUDE": -78.390100716600003, "GAMELAND": null, "BAA": null }, "geometry": { "type": "Point", "coordinates": [ 664310.928400002, 295081.2696 ] } },
{ "type": "Feature", "properties": { "FID": 11, "NAME": "SALMONS LANDING", "ALIAS": null, "WATER_BODY": "LAKE GASTON", "MAINTENANC": "WRC WELDON\/TILLERY DEPOT", "COUNTY": "WARREN", "CANOE_ACCE": "N", "PICNIC_ARE": "N", "RESTROOM": "N", "TRASH_CAN": "N", "FISH_FEED": "N", "MOTOR_REST": "N", "ADA_DOCK_T": "N", "ADA_PAVED_": "N", "ADA_PARK_S": 0, "ADA_NOTES": null, "CAUTION": null, "FIX_PIER_N": 1, "FIX_PIER_T": "T", "FLOAT_PIER": 0, "FLT_PIER_T": null, "PARK_SPACE": 30, "PARK_COVER": "UNPAVED", "LIGHTS": "N", "STREET": "129 SALMONS LANDING RD", "CITY": "LITTLETON", "STATE": "NC", "ZIP": 27850, "LATITUDE": 36.487010558000001, "LONGITUDE": -77.946781687300003, "GAMELAND": null, "BAA": "SALMONS LANDING" }, "geometry": { "type": "Point", "coordinates": [ 703984.121299997, 304143.180799998 ] } },
{ "type": "Feature", "properties": { "FID": 12, "NAME": "WEAVER CREEK", "ALIAS": null, "WATER_BODY": "JORDAN LAKE", "MAINTENANC": "WRC SYKES DEPOT", "COUNTY": "CHATHAM", "CANOE_ACCE": "N", "PICNIC_ARE": "N", "RESTROOM": "N", "TRASH_CAN": "N", "FISH_FEED": "N", "MOTOR_REST": "N", "ADA_DOCK_T": "N", "ADA_PAVED_": "N", "ADA_PARK_S": 0, "ADA_NOTES": null, "CAUTION": "PARKING LOT WITH BANK FISHING.", "FIX_PIER_N": 0, "FIX_PIER_T": null, "FLOAT_PIER": 0, "FLT_PIER_T": null, "PARK_SPACE": 25, "PARK_COVER": "UNPAVED", "LIGHTS": "N", "STREET": "3394 BEAVER CREEK RD", "CITY": "NEW HILL", "STATE": "NC", "ZIP": 27562, "LATITUDE": 35.693731308899999, "LONGITUDE": -79.016564252699993, "GAMELAND": "JORDAN", "BAA": null }, "geometry": { "type": "Point", "coordinates": [ 608102.119099997, 215620.898899999 ] } },
{ "type": "Feature", "properties": { "FID": 13, "NAME": "BELLS CHURCH", "ALIAS": null, "WATER_BODY": "JORDAN LAKE", "MAINTENANC": "WRC SYKES DEPOT", "COUNTY": "CHATHAM", "CANOE_ACCE": "N", "PICNIC_ARE": "N", "RESTROOM": "N", "TRASH_CAN": "N", "FISH_FEED": "N", "MOTOR_REST": "N", "ADA_DOCK_T": "N", "ADA_PAVED_": "Y", "ADA_PARK_S": 2, "ADA_NOTES": null, "CAUTION": "THERE ARE LED LIGHTS ON THE PIER TO ATTRACT BAITFISH FOR NIGHT FISHING.", "FIX_PIER_N": 0, "FIX_PIER_T": null, "FLOAT_PIER": 1, "FLT_PIER_T": "T", "PARK_SPACE": 25, "PARK_COVER": "UNPAVED", "LIGHTS": "Y", "STREET": "1126 FARRINGTON RD", "CITY": "APEX", "STATE": "NC", "ZIP": 27523, "LATITUDE": 35.7519005009, "LONGITUDE": -79.007529812499996, "GAMELAND": "JORDAN", "BAA": null }, "geometry": { "type": "Point", "coordinates": [ 608920.245099999, 222074.292199999 ] } },
{ "type": "Feature", "properties": { "FID": 14, "NAME": "ROCK QUARRY", "ALIAS": null, "WATER_BODY": "JORDAN LAKE", "MAINTENANC": "WRC SYKES DEPOT", "COUNTY": "CHATHAM", "CANOE_ACCE": "N", "PICNIC_ARE": "N", "RESTROOM": "N", "TRASH_CAN": "N", "FISH_FEED": "N", "MOTOR_REST": "N", "ADA_DOCK_T": "N", "ADA_PAVED_": "N", "ADA_PARK_S": 0, "ADA_NOTES": null, "CAUTION": "PARKING LOT WITH PATHS TO BANK FISHING.", "FIX_PIER_N": 0, "FIX_PIER_T": null, "FLOAT_PIER": 0, "FLT_PIER_T": null, "PARK_SPACE": 15, "PARK_COVER": "UNPAVED", "LIGHTS": "N", "STREET": "4830 BIG WOODS RD", "CITY": "CHAPEL HILL", "STATE": "NC", "ZIP": 27517, "LATITUDE": 35.798776104200002, "LONGITUDE": -79.025600239200003, "GAMELAND": "JORDAN", "BAA": null }, "geometry": { "type": "Point", "coordinates": [ 607287.348099999, 227275.193999998 ] } },
{ "type": "Feature", "properties": { "FID": 15, "NAME": "OLD 98", "ALIAS": null, "WATER_BODY": "FALLS LAKE", "MAINTENANC": "WRC BUTNER\/ROGERS LAKE DEPOT", "COUNTY": "WAKE", "CANOE_ACCE": "N", "PICNIC_ARE": "N", "RESTROOM": "N", "TRASH_CAN": "N", "FISH_FEED": "Y", "MOTOR_REST": "N", "ADA_DOCK_T": "N", "ADA_PAVED_": "N", "ADA_PARK_S": 0, "ADA_NOTES": null, "CAUTION": "PARKING LOT WITH PATHS TO BANK FISHING.", "FIX_PIER_N": 0, "FIX_PIER_T": null, "FLOAT_PIER": 0, "FLT_PIER_T": null, "PARK_SPACE": 15, "PARK_COVER": "UNPAVED", "LIGHTS": "N", "STREET": "3117 DURHAM RD", "CITY": "WAKE FOREST", "STATE": "NC", "ZIP": 27587, "LATITUDE": 35.979079556099997, "LONGITUDE": -78.627500671700005, "GAMELAND": "BUTNER-FALLS OF NEUSE", "BAA": null }, "geometry": { "type": "Point", "coordinates": [ 642954.5124000011, 247282.897999998 ] } },
{ "type": "Feature", "properties": { "FID": 16, "NAME": "RABBIT SHUFFLE", "ALIAS": null, "WATER_BODY": "RABBIT SHUFFLE POND", "MAINTENANC": "WRC CASWELL DEPOT", "COUNTY": "CASWELL", "CANOE_ACCE": "N", "PICNIC_ARE": "N", "RESTROOM": "N", "TRASH_CAN": "N", "FISH_FEED": "N", "MOTOR_REST": "N", "ADA_DOCK_T": "N", "ADA_PAVED_": "Y", "ADA_PARK_S": 2, "ADA_NOTES": null, "CAUTION": null, "FIX_PIER_N": 1, "FIX_PIER_T": "T", "FLOAT_PIER": 0, "FLT_PIER_T": null, "PARK_SPACE": 10, "PARK_COVER": "UNPAVED", "LIGHTS": "N", "STREET": "3638 NC HWY 62 S", "CITY": "YANCEYVILLE", "STATE": "NC", "ZIP": 27939, "LATITUDE": 36.357443831600001, "LONGITUDE": -79.344441591899994, "GAMELAND": "R WAYNE BAILEY - CASWELL", "BAA": null }, "geometry": { "type": "Point", "coordinates": [ 578684.090400003, 289317.3462 ] } },
{ "type": "Feature", "properties": { "FID": 17, "NAME": "MCKINNEY LAKE FISH HATCHERY", "ALIAS": null, "WATER_BODY": "MCKINNEY LAKE", "MAINTENANC": "WRC MCKINNEY HATCHERY", "COUNTY": "RICHMOND", "CANOE_ACCE": "Y", "PICNIC_ARE": "Y", "RESTROOM": "N", "TRASH_CAN": "Y", "FISH_FEED": "Y", "MOTOR_REST": "N", "ADA_DOCK_T": "Y", "ADA_PAVED_": "Y", "ADA_PARK_S": 2, "ADA_NOTES": "HANDRAILS ON THE PIER.", "CAUTION": null, "FIX_PIER_N": 1, "FIX_PIER_T": "T", "FLOAT_PIER": 0, "FLT_PIER_T": null, "PARK_SPACE": 10, "PARK_COVER": "UNPAVED", "LIGHTS": "N", "STREET": "220 MCKINNEY LAKE RD", "CITY": "HOFFMAN", "STATE": "NC", "ZIP": 28347, "LATITUDE": 35.008899786100002, "LONGITUDE": -79.6272907914, "GAMELAND": "SANDHILLS", "BAA": null }, "geometry": { "type": "Point", "coordinates": [ 552350.3574, 139830.753699999 ] } },
{ "type": "Feature", "properties": { "FID": 18, "NAME": "SHOUPS LANDING", "ALIAS": null, "WATER_BODY": "CHOWAN RIVER", "MAINTENANC": "WRC EDENTON DEPOT", "COUNTY": "GATES", "CANOE_ACCE": "N", "PICNIC_ARE": "N", "RESTROOM": "N", "TRASH_CAN": "N", "FISH_FEED": "N", "MOTOR_REST": "N", "ADA_DOCK_T": "N", "ADA_PAVED_": "Y", "ADA_PARK_S": 2, "ADA_NOTES": null, "CAUTION": null, "FIX_PIER_N": 2, "FIX_PIER_T": "L", "FLOAT_PIER": 0, "FLT_PIER_T": null, "PARK_SPACE": 50, "PARK_COVER": "UNPAVED", "LIGHTS": "N", "STREET": "120 SHOUPS LANDING RD", "CITY": "GATESVILLE", "STATE": "NC", "ZIP": 27938, "LATITUDE": 36.401188333699999, "LONGITUDE": -76.929720536199994, "GAMELAND": null, "BAA": "SHOUPS LANDING" }, "geometry": { "type": "Point", "coordinates": [ 795315.4889999999, 296054.791499998 ] } },
{ "type": "Feature", "properties": { "FID": 19, "NAME": "OLD WHITNEY", "ALIAS": null, "WATER_BODY": "BADIN LAKE", "MAINTENANC": "WRC HYDRO DEPOT", "COUNTY": "STANLY", "CANOE_ACCE": "N", "PICNIC_ARE": "Y", "RESTROOM": "N", "TRASH_CAN": "Y", "FISH_FEED": "N", "MOTOR_REST": "N", "ADA_DOCK_T": "N", "ADA_PAVED_": "N", "ADA_PARK_S": 0, "ADA_NOTES": null, "CAUTION": null, "FIX_PIER_N": 1, "FIX_PIER_T": "T", "FLOAT_PIER": 0, "FLT_PIER_T": null, "PARK_SPACE": 50, "PARK_COVER": "UNPAVED", "LIGHTS": "N", "STREET": "45168 OLD WHITNEY RD", "CITY": "NEW LONDON", "STATE": "NC", "ZIP": 28127, "LATITUDE": 35.469816691699997, "LONGITUDE": -80.137591091600001, "GAMELAND": null, "BAA": null }, "geometry": { "type": "Point", "coordinates": [ 506364.345600002, 191371.432399999 ] } },
{ "type": "Feature", "properties": { "FID": 20, "NAME": "FLAT CREEK", "ALIAS": null, "WATER_BODY": "TUCKERTOWN LAKE", "MAINTENANC": "WRC HYDRO DEPOT", "COUNTY": "ROWAN", "CANOE_ACCE": "Y", "PICNIC_ARE": "N", "RESTROOM": "N", "TRASH_CAN": "N", "FISH_FEED": "N", "MOTOR_REST": "N", "ADA_DOCK_T": "N", "ADA_PAVED_": "N", "ADA_PARK_S": 0, "ADA_NOTES": null, "CAUTION": "BANK FISHING AREA ONLY. SMALL PARKING LOT WITH PATHS TO THE SHORELINE.", "FIX_PIER_N": 0, "FIX_PIER_T": null, "FLOAT_PIER": 0, "FLT_PIER_T": null, "PARK_SPACE": 10, "PARK_COVER": "UNPAVED", "LIGHTS": "N", "STREET": "4450 RIVER RD", "CITY": "RICHFIELD", "STATE": "NC", "ZIP": 28137, "LATITUDE": 35.544725508799999, "LONGITUDE": -80.220358334099998, "GAMELAND": "ALCOA", "BAA": null }, "geometry": { "type": "Point", "coordinates": [ 498955.705399998, 199770.159400001 ] } },
{ "type": "Feature", "properties": { "FID": 21, "NAME": "INDIAN CAMP LAKE", "ALIAS": null, "WATER_BODY": "INDIAN CAMP LAKE", "MAINTENANC": "WRC SANDHILLS DEPOT", "COUNTY": "RICHMOND", "CANOE_ACCE": "Y", "PICNIC_ARE": "N", "RESTROOM": "N", "TRASH_CAN": "N", "FISH_FEED": "Y", "MOTOR_REST": "Y", "ADA_DOCK_T": "Y", "ADA_PAVED_": "Y", "ADA_PARK_S": 4, "ADA_NOTES": null, "CAUTION": null, "FIX_PIER_N": 2, "FIX_PIER_T": "L", "FLOAT_PIER": 0, "FLT_PIER_T": null, "PARK_SPACE": 15, "PARK_COVER": "UNPAVED", "LIGHTS": "N", "STREET": "226 JAMES G WATSON RD", "CITY": "HOFFMAN", "STATE": "NC", "ZIP": 28347, "LATITUDE": 35.011348609700001, "LONGITUDE": -79.574814255999996, "GAMELAND": "SANDHILLS", "BAA": null }, "geometry": { "type": "Point", "coordinates": [ 557141.2431000019, 140073.392999999 ] } },
{ "type": "Feature", "properties": { "FID": 22, "NAME": "LAKE RIM", "ALIAS": null, "WATER_BODY": "LAKE RIM", "MAINTENANC": "WRC SUGGS MILL POND DEPOT", "COUNTY": "CUMBERLAND", "CANOE_ACCE": "Y", "PICNIC_ARE": "N", "RESTROOM": "N", "TRASH_CAN": "N", "FISH_FEED": "N", "MOTOR_REST": "Y", "ADA_DOCK_T": "N", "ADA_PAVED_": "Y", "ADA_PARK_S": 3, "ADA_NOTES": null, "CAUTION": null, "FIX_PIER_N": 1, "FIX_PIER_T": "T", "FLOAT_PIER": 1, "FLT_PIER_T": "T", "PARK_SPACE": 30, "PARK_COVER": "UNPAVED", "LIGHTS": "N", "STREET": "7508 OLD RAEFORD RD", "CITY": "FAYETTEVILLE", "STATE": "NC", "ZIP": 28304, "LATITUDE": 35.032912720900001, "LONGITUDE": -79.039983816499998, "GAMELAND": null, "BAA": "LAKE RIM" }, "geometry": { "type": "Point", "coordinates": [ 605953.071199998, 142314.302999999 ] } },
{ "type": "Feature", "properties": { "FID": 23, "NAME": "SUTTON LAKE", "ALIAS": null, "WATER_BODY": "SUTTON LAKE", "MAINTENANC": "WRC BOLIVIA DEPOT", "COUNTY": "NEW HANOVER", "CANOE_ACCE": "N", "PICNIC_ARE": "N", "RESTROOM": "N", "TRASH_CAN": "N", "FISH_FEED": "N", "MOTOR_REST": "N", "ADA_DOCK_T": "N", "ADA_PAVED_": "N", "ADA_PARK_S": 2, "ADA_NOTES": "PAVED ADA PARKING LOT.", "CAUTION": null, "FIX_PIER_N": 1, "FIX_PIER_T": "T", "FLOAT_PIER": 0, "FLT_PIER_T": null, "PARK_SPACE": 40, "PARK_COVER": "UNPAVED", "LIGHTS": "N", "STREET": "301 SUTTON LAKE RD", "CITY": "WILMINGTON", "STATE": "NC", "ZIP": 28401, "LATITUDE": 34.301500140500004, "LONGITUDE": -77.994139580699994, "GAMELAND": null, "BAA": "SUTTON LAKE" }, "geometry": { "type": "Point", "coordinates": [ 702197.068899997, 61649.4001 ] } },
{ "type": "Feature", "properties": { "FID": 24, "NAME": "HOLLY SHELTER", "ALIAS": null, "WATER_BODY": "NORTHEAST CAPE FEAR RIVER", "MAINTENANC": "WRC CHINQUAPIN\/HOLLY SHELTER DEPOT", "COUNTY": "PENDER", "CANOE_ACCE": "N", "PICNIC_ARE": "N", "RESTROOM": "N", "TRASH_CAN": "N", "FISH_FEED": "N", "MOTOR_REST": "N", "ADA_DOCK_T": "N", "ADA_PAVED_": "N", "ADA_PARK_S": 0, "ADA_NOTES": null, "CAUTION": "THE SITE IS 250 YARDS ALONG THE RIVER FROM BAA. FISHING IS DONE FROM A BULHEAD WALL.", "FIX_PIER_N": 0, "FIX_PIER_T": null, "FLOAT_PIER": 0, "FLT_PIER_T": null, "PARK_SPACE": 40, "PARK_COVER": "PAVED", "LIGHTS": "N", "STREET": "7271 SHAW HWY", "CITY": "BURGAW", "STATE": "NC", "ZIP": 28425, "LATITUDE": 34.5462710814, "LONGITUDE": -77.818754996699994, "GAMELAND": "HOLLY SHELTER", "BAA": "HOLLY SHELTER" }, "geometry": { "type": "Point", "coordinates": [ 718018.549800001, 88977.1618 ] } },
{ "type": "Feature", "properties": { "FID": 25, "NAME": "BRIDGEWATER", "ALIAS": null, "WATER_BODY": "LAKE JAMES TAILRACE", "MAINTENANC": "WRC MARION DEPOT", "COUNTY": "BURKE", "CANOE_ACCE": "Y", "PICNIC_ARE": "N", "RESTROOM": "N", "TRASH_CAN": "N", "FISH_FEED": "N", "MOTOR_REST": "N", "ADA_DOCK_T": "N", "ADA_PAVED_": "Y", "ADA_PARK_S": 2, "ADA_NOTES": null, "CAUTION": null, "FIX_PIER_N": 1, "FIX_PIER_T": "T", "FLOAT_PIER": 0, "FLT_PIER_T": null, "PARK_SPACE": 20, "PARK_COVER": "UNPAVED", "LIGHTS": "N", "STREET": null, "CITY": "ALPINE", "STATE": "NC", "ZIP": 0, "LATITUDE": 35.740279483599998, "LONGITUDE": -81.835033803000002, "GAMELAND": null, "BAA": null }, "geometry": { "type": "Point", "coordinates": [ 353206.832199998, 224446.384399999 ] } },
{ "type": "Feature", "properties": { "FID": 26, "NAME": "BROUGHTON POND", "ALIAS": null, "WATER_BODY": "BROUGHTON POND", "MAINTENANC": "WRC MORGANTON DEPOT", "COUNTY": "BURKE", "CANOE_ACCE": "Y", "PICNIC_ARE": "N", "RESTROOM": "N", "TRASH_CAN": "N", "FISH_FEED": "N", "MOTOR_REST": "Y", "ADA_DOCK_T": "Y", "ADA_PAVED_": "Y", "ADA_PARK_S": 2, "ADA_NOTES": "PIER HANDRAILS", "CAUTION": null, "FIX_PIER_N": 2, "FIX_PIER_T": "STRAIGHT", "FLOAT_PIER": 1, "FLT_PIER_T": "T", "PARK_SPACE": 34, "PARK_COVER": "UNPAVED", "LIGHTS": "N", "STREET": "5152 WESTERN AVE", "CITY": "MORGANTON", "STATE": "NC", "ZIP": 28655, "LATITUDE": 35.676782146500003, "LONGITUDE": -81.684425318500004, "GAMELAND": "SOUTH MOUNTAINS", "BAA": null }, "geometry": { "type": "Point", "coordinates": [ 366633.653999999, 217025.714299999 ] } },
{ "type": "Feature", "properties": { "FID": 27, "NAME": "WITTENBURG", "ALIAS": null, "WATER_BODY": "LAKE HICKORY", "MAINTENANC": "WRC MORGANTON DEPOT", "COUNTY": "ALEXANDER", "CANOE_ACCE": "N", "PICNIC_ARE": "N", "RESTROOM": "Y", "TRASH_CAN": "N", "FISH_FEED": "N", "MOTOR_REST": "N", "ADA_DOCK_T": "Y", "ADA_PAVED_": "Y", "ADA_PARK_S": 3, "ADA_NOTES": null, "CAUTION": null, "FIX_PIER_N": 0, "FIX_PIER_T": null, "FLOAT_PIER": 1, "FLT_PIER_T": "T", "PARK_SPACE": 28, "PARK_COVER": "PAVED", "LIGHTS": "Y", "STREET": "175 WILDLIFE ACCESS RD", "CITY": "HICKORY", "STATE": "NC", "ZIP": 28601, "LATITUDE": 35.803524500999998, "LONGITUDE": -81.310206170300006, "GAMELAND": null, "BAA": "WITTENBURG" }, "geometry": { "type": "Point", "coordinates": [ 400824.8552, 230231.1347 ] } },
{ "type": "Feature", "properties": { "FID": 28, "NAME": "ALLEN", "ALIAS": "HOT HOLE, ALLEN STEAM PLANT", "WATER_BODY": "LAKE WYLIE", "MAINTENANC": "WRC MT HOLLY DEPOT", "COUNTY": "GASTON", "CANOE_ACCE": "N", "PICNIC_ARE": "N", "RESTROOM": "Y", "TRASH_CAN": "Y", "FISH_FEED": "N", "MOTOR_REST": "N", "ADA_DOCK_T": "N", "ADA_PAVED_": "Y", "ADA_PARK_S": 2, "ADA_NOTES": null, "CAUTION": "ABOUT 300 FT OF CONCRETE WALKWAY ON SLOPE TO FISHING PIERS.", "FIX_PIER_N": 2, "FIX_PIER_T": "T", "FLOAT_PIER": 0, "FLT_PIER_T": null, "PARK_SPACE": 22, "PARK_COVER": "PAVED", "LIGHTS": "Y", "STREET": "425 HOT HOLE LN", "CITY": "BELMONT", "STATE": "NC", "ZIP": 28012, "LATITUDE": 35.184957107099997, "LONGITUDE": -81.030294880300005, "GAMELAND": null, "BAA": null }, "geometry": { "type": "Point", "coordinates": [ 424713.660499997, 161070.417599998 ] } },
{ "type": "Feature", "properties": { "FID": 29, "NAME": "MARSHALL STEAM PLANT", "ALIAS": "<Null>", "WATER_BODY": "LAKE NORMAN", "MAINTENANC": "WRC MT HOLLY DEPOT", "COUNTY": "CATAWBA", "CANOE_ACCE": "N", "PICNIC_ARE": "N", "RESTROOM": "Y", "TRASH_CAN": "Y", "FISH_FEED": "N", "MOTOR_REST": "N", "ADA_DOCK_T": "N", "ADA_PAVED_": "N", "ADA_PARK_S": 0, "ADA_NOTES": null, "CAUTION": "BANK FISHING ONLY. NO PIERS.", "FIX_PIER_N": 0, "FIX_PIER_T": null, "FLOAT_PIER": 0, "FLT_PIER_T": null, "PARK_SPACE": 26, "PARK_COVER": "UNPAVED", "LIGHTS": "Y", "STREET": "3610 KISER ISLAND RD", "CITY": "MOUNTAIN CREEK", "STATE": "NC", "ZIP": 28682, "LATITUDE": 35.593225768099998, "LONGITUDE": -80.957416356300001, "GAMELAND": null, "BAA": null }, "geometry": { "type": "Point", "coordinates": [ 432242.4146, 206219.2456 ] } },
{ "type": "Feature", "properties": { "FID": 30, "NAME": "MOUNTAIN ISLAND", "ALIAS": null, "WATER_BODY": "CATAWBA RIVER", "MAINTENANC": "WRC MT HOLLY DEPOT", "COUNTY": "GASTON", "CANOE_ACCE": "N", "PICNIC_ARE": "N", "RESTROOM": "Y", "TRASH_CAN": "Y", "FISH_FEED": "N", "MOTOR_REST": "N", "ADA_DOCK_T": "Y", "ADA_PAVED_": "N", "ADA_PARK_S": 2, "ADA_NOTES": "HANDRAILS ON THE PIER.", "CAUTION": null, "FIX_PIER_N": 1, "FIX_PIER_T": "STRAIGHT", "FLOAT_PIER": 0, "FLT_PIER_T": null, "PARK_SPACE": 12, "PARK_COVER": "UNPAVED", "LIGHTS": "Y", "STREET": "304 MOUNTAIN ISLAND RD", "CITY": "MT HOLLY", "STATE": "NC", "ZIP": 28102, "LATITUDE": 35.333269340500003, "LONGITUDE": -80.986666442200004, "GAMELAND": null, "BAA": null }, "geometry": { "type": "Point", "coordinates": [ 429015.357799999, 177439.196899999 ] } },
{ "type": "Feature", "properties": { "FID": 31, "NAME": "BLANTYRE", "ALIAS": null, "WATER_BODY": "FRENCH BROAD RIVER", "MAINTENANC": "WRC BALSAM DEPOT", "COUNTY": "TRANSYLVANIA", "CANOE_ACCE": "Y", "PICNIC_ARE": "N", "RESTROOM": "N", "TRASH_CAN": "N", "FISH_FEED": "N", "MOTOR_REST": "N", "ADA_DOCK_T": "N", "ADA_PAVED_": "N", "ADA_PARK_S": 0, "ADA_NOTES": null, "CAUTION": "BOATS UP TO 14 FT CAN BE LAUNCHED AT THE SITE.", "FIX_PIER_N": 0, "FIX_PIER_T": null, "FLOAT_PIER": 0, "FLT_PIER_T": null, "PARK_SPACE": 18, "PARK_COVER": "UNPAVED", "LIGHTS": "N", "STREET": "120 GROVE BRIDGE RD", "CITY": "HENDERSONVILLE", "STATE": "NC", "ZIP": 28739, "LATITUDE": 35.299162099699998, "LONGITUDE": -82.623206636099994, "GAMELAND": null, "BAA": null }, "geometry": { "type": "Point", "coordinates": [ 280168.670599997, 177861.0898 ] } },
{ "type": "Feature", "properties": { "FID": 32, "NAME": "COLD MOUNTAIN", "ALIAS": null, "WATER_BODY": "WEST FORK PIGEON RIVER", "MAINTENANC": "WRC BALSAM DEPOT", "COUNTY": "HAYWOOD", "CANOE_ACCE": "N", "PICNIC_ARE": "N", "RESTROOM": "N", "TRASH_CAN": "N", "FISH_FEED": "N", "MOTOR_REST": "N", "ADA_DOCK_T": "N", "ADA_PAVED_": "N", "ADA_PARK_S": 0, "ADA_NOTES": null, "CAUTION": "BANK ACCESS ONLY.", "FIX_PIER_N": 0, "FIX_PIER_T": null, "FLOAT_PIER": 0, "FLT_PIER_T": null, "PARK_SPACE": 20, "PARK_COVER": "UNPAVED", "LIGHTS": "Y", "STREET": "NC HWY 215", "CITY": "CANTON", "STATE": "NC", "ZIP": 0, "LATITUDE": 35.398810299899999, "LONGITUDE": -82.934836414599999, "GAMELAND": "COLD MOUNTAIN", "BAA": null }, "geometry": { "type": "Point", "coordinates": [ 252286.682700001, 189985.292300001 ] } },
{ "type": "Feature", "properties": { "FID": 33, "NAME": "BIG ROCK", "ALIAS": "GREEN RIVER GAME LAND", "WATER_BODY": "GREEN RIVER", "MAINTENANC": "WRC MARION DEPOT", "COUNTY": "POLK", "CANOE_ACCE": "Y", "PICNIC_ARE": "N", "RESTROOM": "N", "TRASH_CAN": "N", "FISH_FEED": "N", "MOTOR_REST": "Y", "ADA_DOCK_T": "N", "ADA_PAVED_": "N", "ADA_PARK_S": 1, "ADA_NOTES": null, "CAUTION": null, "FIX_PIER_N": 0, "FIX_PIER_T": null, "FLOAT_PIER": 0, "FLT_PIER_T": null, "PARK_SPACE": 22, "PARK_COVER": "UNPAVED", "LIGHTS": "N", "STREET": null, "CITY": "MILL SPRING", "STATE": "NC", "ZIP": 0, "LATITUDE": 35.309941854400002, "LONGITUDE": -82.261250029600006, "GAMELAND": "GREEN RIVER", "BAA": null }, "geometry": { "type": "Point", "coordinates": [ 313105.604800001, 177915.069600001 ] } },
{ "type": "Feature", "properties": { "FID": 34, "NAME": "HANGING DOG", "ALIAS": null, "WATER_BODY": "HIWASSEE LAKE", "MAINTENANC": "WRC ANDREWS DEPOT", "COUNTY": "CHEROKEE", "CANOE_ACCE": "Y", "PICNIC_ARE": "Y", "RESTROOM": "Y", "TRASH_CAN": "Y", "FISH_FEED": "N", "MOTOR_REST": "N", "ADA_DOCK_T": "N", "ADA_PAVED_": "N", "ADA_PARK_S": 0, "ADA_NOTES": "NOT ADA YET. USFS IS WORKING ON IT.", "CAUTION": null, "FIX_PIER_N": 1, "FIX_PIER_T": "T", "FLOAT_PIER": 0, "FLT_PIER_T": null, "PARK_SPACE": 20, "PARK_COVER": "UNPAVED", "LIGHTS": "Y", "STREET": "1917 HANGING DOG RD", "CITY": "MURPHY", "STATE": "NC", "ZIP": 28906, "LATITUDE": 35.096293352300002, "LONGITUDE": -84.091300299799997, "GAMELAND": "NANTAHALA", "BAA": "HANGING DOG" }, "geometry": { "type": "Point", "coordinates": [ 145631.787299998, 161244.752300002 ] } },
{ "type": "Feature", "properties": { "FID": 35, "NAME": "TUCKASEGEE", "ALIAS": "HORSE PARK", "WATER_BODY": "TUCKASEGEE RIVER", "MAINTENANC": "WRC BALSAM DEPOT", "COUNTY": "SWAIN", "CANOE_ACCE": "Y", "PICNIC_ARE": "Y", "RESTROOM": "Y", "TRASH_CAN": "N", "FISH_FEED": "N", "MOTOR_REST": "N", "ADA_DOCK_T": "N", "ADA_PAVED_": "N", "ADA_PARK_S": 1, "ADA_NOTES": null, "CAUTION": null, "FIX_PIER_N": 1, "FIX_PIER_T": "T", "FLOAT_PIER": 0, "FLT_PIER_T": null, "PARK_SPACE": 15, "PARK_COVER": "UNPAVED", "LIGHTS": null, "STREET": null, "CITY": "BRYSON CITY", "STATE": "NC", "ZIP": 0, "LATITUDE": 35.421781637000002, "LONGITUDE": -83.460221471300002, "GAMELAND": null, "BAA": null }, "geometry": { "type": "Point", "coordinates": [ 204722.201099999, 194548.285700001 ] } },
{ "type": "Feature", "properties": { "FID": 36, "NAME": "JACKRABBIT", "ALIAS": null, "WATER_BODY": "CHATUGE LAKE", "MAINTENANC": "WRC ANDREWS DEPOT", "COUNTY": "CLAY", "CANOE_ACCE": "N", "PICNIC_ARE": "N", "RESTROOM": "Y", "TRASH_CAN": "Y", "FISH_FEED": "N", "MOTOR_REST": "N", "ADA_DOCK_T": "N", "ADA_PAVED_": "N", "ADA_PARK_S": 0, "ADA_NOTES": "NOT ADA YET. USFS IS WORKING ON IT.", "CAUTION": null, "FIX_PIER_N": 1, "FIX_PIER_T": "T", "FLOAT_PIER": 0, "FLT_PIER_T": null, "PARK_SPACE": 25, "PARK_COVER": "UNPAVED", "LIGHTS": "Y", "STREET": "288 JACK RABBIT RD", "CITY": "HAYESVILLE", "STATE": "NC", "ZIP": 28904, "LATITUDE": 35.005419855100001, "LONGITUDE": -83.765521555700005, "GAMELAND": null, "BAA": null }, "geometry": { "type": "Point", "coordinates": [ 174812.634900004, 149701.9923 ] } },
{ "type": "Feature", "properties": { "FID": 37, "NAME": "LEDFORDS CHAPEL", "ALIAS": null, "WATER_BODY": "CHATUGE LAKE", "MAINTENANC": "WRC ANDREWS DEPOT", "COUNTY": "CLAY", "CANOE_ACCE": "Y", "PICNIC_ARE": "N", "RESTROOM": "Y", "TRASH_CAN": "N", "FISH_FEED": "N", "MOTOR_REST": "N", "ADA_DOCK_T": "Y", "ADA_PAVED_": "Y", "ADA_PARK_S": 1, "ADA_NOTES": null, "CAUTION": null, "FIX_PIER_N": 0, "FIX_PIER_T": null, "FLOAT_PIER": 1, "FLT_PIER_T": "T", "PARK_SPACE": 50, "PARK_COVER": "UNPAVED", "LIGHTS": "N", "STREET": "994 LEDFORD CHAPEL RD", "CITY": "HAYESVILLE", "STATE": "NC", "ZIP": 28904, "LATITUDE": 35.027017025200003, "LONGITUDE": -83.765644953600003, "GAMELAND": null, "BAA": "LEDFORDS CHAPEL" }, "geometry": { "type": "Point", "coordinates": [ 174916.3521, 152095.496399999 ] } },
{ "type": "Feature", "properties": { "FID": 38, "NAME": "OLD 288", "ALIAS": null, "WATER_BODY": "FONTANA LAKE", "MAINTENANC": "WRC BALSAM DEPOT", "COUNTY": "SWAIN", "CANOE_ACCE": "Y", "PICNIC_ARE": "Y", "RESTROOM": "Y", "TRASH_CAN": "Y", "FISH_FEED": "N", "MOTOR_REST": "N", "ADA_DOCK_T": "Y", "ADA_PAVED_": "Y", "ADA_PARK_S": 2, "ADA_NOTES": null, "CAUTION": null, "FIX_PIER_N": 1, "FIX_PIER_T": "T", "FLOAT_PIER": 0, "FLT_PIER_T": null, "PARK_SPACE": 6, "PARK_COVER": "UNPAVED", "LIGHTS": "Y", "STREET": "2251 OLD NC HWY 288", "CITY": "BRYSON CITY", "STATE": "NC", "ZIP": 28713, "LATITUDE": 35.430077746599999, "LONGITUDE": -83.479543781499999, "GAMELAND": null, "BAA": null }, "geometry": { "type": "Point", "coordinates": [ 203010.911499999, 195546.6536 ] } },
{ "type": "Feature", "properties": { "FID": 39, "NAME": "QUEENS CREEK", "ALIAS": null, "WATER_BODY": "QUEENS CREEK LAKE", "MAINTENANC": "WRC ANDREWS DEPOT", "COUNTY": "MACON", "CANOE_ACCE": "Y", "PICNIC_ARE": "Y", "RESTROOM": "Y", "TRASH_CAN": "Y", "FISH_FEED": "N", "MOTOR_REST": "N", "ADA_DOCK_T": "N", "ADA_PAVED_": "N", "ADA_PARK_S": 0, "ADA_NOTES": null, "CAUTION": null, "FIX_PIER_N": 1, "FIX_PIER_T": "T", "FLOAT_PIER": 0, "FLT_PIER_T": null, "PARK_SPACE": 4, "PARK_COVER": "UNPAVED", "LIGHTS": "Y", "STREET": null, "CITY": null, "STATE": "NC", "ZIP": 0, "LATITUDE": 35.278102842800003, "LONGITUDE": -83.655381991200002, "GAMELAND": null, "BAA": null }, "geometry": { "type": "Point", "coordinates": [ 186271.925700001, 179440.457199998 ] } },
{ "type": "Feature", "properties": { "FID": 40, "NAME": "SHOOTING CREEK", "ALIAS": null, "WATER_BODY": "CHATUGE LAKE", "MAINTENANC": "WRC ANDREWS DEPOT", "COUNTY": "CLAY", "CANOE_ACCE": "N", "PICNIC_ARE": "N", "RESTROOM": "N", "TRASH_CAN": "N", "FISH_FEED": "N", "MOTOR_REST": "N", "ADA_DOCK_T": "Y", "ADA_PAVED_": "Y", "ADA_PARK_S": 1, "ADA_NOTES": null, "CAUTION": null, "FIX_PIER_N": 2, "FIX_PIER_T": "T", "FLOAT_PIER": 1, "FLT_PIER_T": "T", "PARK_SPACE": 10, "PARK_COVER": "UNPAVED", "LIGHTS": null, "STREET": "NC HWY 175", "CITY": "HAYESVILLE", "STATE": "NC", "ZIP": 0, "LATITUDE": 35.024948357500001, "LONGITUDE": -83.733169295600007, "GAMELAND": null, "BAA": null }, "geometry": { "type": "Point", "coordinates": [ 177865.337899998, 151724.563999999 ] } },
{ "type": "Feature", "properties": { "FID": 41, "NAME": "TSALI", "ALIAS": null, "WATER_BODY": "FONTANA LAKE", "MAINTENANC": "WRC ANDREWS DEPOT", "COUNTY": "SWAIN", "CANOE_ACCE": "Y", "PICNIC_ARE": "N", "RESTROOM": "N", "TRASH_CAN": "N", "FISH_FEED": "N", "MOTOR_REST": "N", "ADA_DOCK_T": "N", "ADA_PAVED_": "N", "ADA_PARK_S": 0, "ADA_NOTES": null, "CAUTION": "BANK FISHING ONLY.", "FIX_PIER_N": 0, "FIX_PIER_T": null, "FLOAT_PIER": 0, "FLT_PIER_T": null, "PARK_SPACE": 30, "PARK_COVER": "UNPAVED", "LIGHTS": "N", "STREET": "8101 NC HWY 28", "CITY": "BRYSON CITY", "STATE": "NC", "ZIP": 28713, "LATITUDE": 35.4047785168, "LONGITUDE": -83.578459119100003, "GAMELAND": null, "BAA": "TSALI" }, "geometry": { "type": "Point", "coordinates": [ 193909.663199998, 193152.686000001 ] } },
{ "type": "Feature", "properties": { "FID": 42, "NAME": "ANDREWS", "ALIAS": null, "WATER_BODY": "VALLEY RIVER", "MAINTENANC": "WRC ANDREWS DEPOT", "COUNTY": "CHEROKEE", "CANOE_ACCE": "N", "PICNIC_ARE": "Y", "RESTROOM": "Y", "TRASH_CAN": "N", "FISH_FEED": "N", "MOTOR_REST": "Y", "ADA_DOCK_T": "Y", "ADA_PAVED_": "Y", "ADA_PARK_S": 6, "ADA_NOTES": null, "CAUTION": null, "FIX_PIER_N": 1, "FIX_PIER_T": "STRAIGHT", "FLOAT_PIER": 0, "FLT_PIER_T": null, "PARK_SPACE": 30, "PARK_COVER": "PAVED", "LIGHTS": "Y", "STREET": null, "CITY": "ANDREWS", "STATE": "NC", "ZIP": 0, "LATITUDE": 35.205688285699999, "LONGITUDE": -83.816575359300003, "GAMELAND": null, "BAA": null }, "geometry": { "type": "Point", "coordinates": [ 171235.782899998, 172116.1873 ] } },
{ "type": "Feature", "properties": { "FID": 43, "NAME": "LEWELLYN BRANCH", "ALIAS": null, "WATER_BODY": "CHEOAH LAKE", "MAINTENANC": "WRC ANDREWS DEPOT", "COUNTY": "SWAIN", "CANOE_ACCE": "N", "PICNIC_ARE": "N", "RESTROOM": "N", "TRASH_CAN": "N", "FISH_FEED": "N", "MOTOR_REST": "N", "ADA_DOCK_T": "N", "ADA_PAVED_": "N", "ADA_PARK_S": 1, "ADA_NOTES": null, "CAUTION": null, "FIX_PIER_N": 1, "FIX_PIER_T": "T", "FLOAT_PIER": 0, "FLT_PIER_T": null, "PARK_SPACE": 14, "PARK_COVER": "UNPAVED", "LIGHTS": "N", "STREET": "24681 NC HWY 28 N", "CITY": "BRYSON CITY", "STATE": "NC", "ZIP": 28713, "LATITUDE": 35.450993502400003, "LONGITUDE": -83.818880797399999, "GAMELAND": null, "BAA": "LEWELLYN BRANCH" }, "geometry": { "type": "Point", "coordinates": [ 172346.578900002, 199306.671700001 ] } },
{ "type": "Feature", "properties": { "FID": 44, "NAME": "HUFFMAN BRIDGE", "ALIAS": null, "WATER_BODY": "LAKE RHODHISS", "MAINTENANC": "WRC MORGANTON DEPOT", "COUNTY": "BURKE", "CANOE_ACCE": "Y", "PICNIC_ARE": "Y", "RESTROOM": "N", "TRASH_CAN": "Y", "FISH_FEED": "N", "MOTOR_REST": "N", "ADA_DOCK_T": "N", "ADA_PAVED_": "N", "ADA_PARK_S": 2, "ADA_NOTES": null, "CAUTION": "BANK FISHING ONLY.", "FIX_PIER_N": 0, "FIX_PIER_T": null, "FLOAT_PIER": 0, "FLT_PIER_T": null, "PARK_SPACE": 24, "PARK_COVER": "PAVED", "LIGHTS": "Y", "STREET": null, "CITY": "MORGANTON", "STATE": "NC", "ZIP": 0, "LATITUDE": 35.789675043499997, "LONGITUDE": -81.619752788599996, "GAMELAND": null, "BAA": null }, "geometry": { "type": "Point", "coordinates": [ 372816.286600001, 229389.743799999 ] } },
{ "type": "Feature", "properties": { "FID": 45, "NAME": "CONLEY CREEK", "ALIAS": null, "WATER_BODY": "LAKE RHODHISS", "MAINTENANC": "WRC MORGANTON DEPOT", "COUNTY": "CALDWELL", "CANOE_ACCE": "N", "PICNIC_ARE": "N", "RESTROOM": "N", "TRASH_CAN": "Y", "FISH_FEED": "N", "MOTOR_REST": "N", "ADA_DOCK_T": "Y", "ADA_PAVED_": "Y", "ADA_PARK_S": 2, "ADA_NOTES": "DOCK HANDRAILS. PARKING AT THE  RAMP.", "CAUTION": null, "FIX_PIER_N": 1, "FIX_PIER_T": "T", "FLOAT_PIER": 0, "FLT_PIER_T": null, "PARK_SPACE": 20, "PARK_COVER": "PAVED", "LIGHTS": "Y", "STREET": "5475 WATERWORKS RD", "CITY": "GRANITE FALLS", "STATE": "NC", "ZIP": 28630, "LATITUDE": 35.783930595199998, "LONGITUDE": -81.483716692300007, "GAMELAND": null, "BAA": "CONLEY CREEK" }, "geometry": { "type": "Point", "coordinates": [ 385093.2553, 228436.562800001 ] } },
{ "type": "Feature", "properties": { "FID": 46, "NAME": "UPPER BARTON CREEK", "ALIAS": null, "WATER_BODY": "FALLS LAKE", "MAINTENANC": "WRC BUTNER\/ROGERS LAKE DEPOT", "COUNTY": "WAKE", "CANOE_ACCE": "N", "PICNIC_ARE": "N", "RESTROOM": "N", "TRASH_CAN": "N", "FISH_FEED": "N", "MOTOR_REST": "N", "ADA_DOCK_T": "N", "ADA_PAVED_": "N", "ADA_PARK_S": 0, "ADA_NOTES": null, "CAUTION": null, "FIX_PIER_N": 0, "FIX_PIER_T": null, "FLOAT_PIER": 0, "FLT_PIER_T": null, "PARK_SPACE": 10, "PARK_COVER": "UNPAVED", "LIGHTS": "N", "STREET": "12717 SIX FORKS RD", "CITY": "RALEIGH", "STATE": "NC", "ZIP": 27614, "LATITUDE": 35.970469708499998, "LONGITUDE": -78.654043506199997, "GAMELAND": "BUTNER-FALLS OF NEUSE", "BAA": null }, "geometry": { "type": "Point", "coordinates": [ 640803.970700003, 246378.5902 ] } },
{ "type": "Feature", "properties": { "FID": 47, "NAME": "HIGH ROCK", "ALIAS": "ROCK HIGH", "WATER_BODY": "HIGH ROCK GAME LAND POND", "MAINTENANC": "WRC CASWELL DEPOT", "COUNTY": "CASWELL", "CANOE_ACCE": "Y", "PICNIC_ARE": "N", "RESTROOM": "N", "TRASH_CAN": "N", "FISH_FEED": "Y", "MOTOR_REST": "Y", "ADA_DOCK_T": "N", "ADA_PAVED_": "Y", "ADA_PARK_S": 1, "ADA_NOTES": null, "CAUTION": null, "FIX_PIER_N": 1, "FIX_PIER_T": "STRAIGHT", "FLOAT_PIER": 0, "FLT_PIER_T": null, "PARK_SPACE": 5, "PARK_COVER": "UNPAVED", "LIGHTS": "N", "STREET": null, "CITY": null, "STATE": "NC", "ZIP": 0, "LATITUDE": 36.433323893400001, "LONGITUDE": -79.2193197406, "GAMELAND": "R WAYNE BAILEY - CASWELL", "BAA": null }, "geometry": { "type": "Point", "coordinates": [ 589933.627400003, 297706.173999999 ] } },
{ "type": "Feature", "properties": { "FID": 48, "NAME": "POLLOCKSVILLE", "ALIAS": null, "WATER_BODY": "TRENT RIVER", "MAINTENANC": "WRC RHEMS DEPOT", "COUNTY": "JONES", "CANOE_ACCE": "N", "PICNIC_ARE": "Y", "RESTROOM": "Y", "TRASH_CAN": "N", "FISH_FEED": "N", "MOTOR_REST": "N", "ADA_DOCK_T": "Y", "ADA_PAVED_": "Y", "ADA_PARK_S": 2, "ADA_NOTES": null, "CAUTION": null, "FIX_PIER_N": 1, "FIX_PIER_T": "T", "FLOAT_PIER": 0, "FLT_PIER_T": null, "PARK_SPACE": 37, "PARK_COVER": "UNPAVED", "LIGHTS": "Y", "STREET": "110 EAST ST", "CITY": "POLLOCKSVILLE", "STATE": "NC", "ZIP": 28573, "LATITUDE": 35.009722994400001, "LONGITUDE": -77.218526914700007, "GAMELAND": null, "BAA": "POLLOCKSVILLE" }, "geometry": { "type": "Point", "coordinates": [ 772181.396200001, 141200.032000002 ] } },
{ "type": "Feature", "properties": { "FID": 49, "NAME": "UPCHURCH LAKE", "ALIAS": "LAKE UPCHURCH", "WATER_BODY": "UPCHURCH LAKE", "MAINTENANC": "WRC SUGGS MILL POND DEPOT", "COUNTY": "HOKE", "CANOE_ACCE": "Y", "PICNIC_ARE": "N", "RESTROOM": "N", "TRASH_CAN": "N", "FISH_FEED": "N", "MOTOR_REST": "N", "ADA_DOCK_T": "N", "ADA_PAVED_": "Y", "ADA_PARK_S": 2, "ADA_NOTES": null, "CAUTION": "MOTORS 25HP AND LESS ONLY. NO JET SKIS.", "FIX_PIER_N": 0, "FIX_PIER_T": null, "FLOAT_PIER": 1, "FLT_PIER_T": "T", "PARK_SPACE": 10, "PARK_COVER": "UNPAVED", "LIGHTS": "N", "STREET": null, "CITY": null, "STATE": "NC", "ZIP": 0, "LATITUDE": 35.035468883900002, "LONGITUDE": -79.206407616000007, "GAMELAND": "NICHOLSON CREEK", "BAA": null }, "geometry": { "type": "Point", "coordinates": [ 590769.060699999, 142616.696400002 ] } },
{ "type": "Feature", "properties": { "FID": 50, "NAME": "CRAPPIE LAKE", "ALIAS": "SANDHILLS GAME LAND", "WATER_BODY": "CRAPPIE LAKE", "MAINTENANC": "WRC SANDHILLS DEPOT", "COUNTY": "RICHMOND", "CANOE_ACCE": "N", "PICNIC_ARE": "Y", "RESTROOM": "N", "TRASH_CAN": "N", "FISH_FEED": "N", "MOTOR_REST": "N", "ADA_DOCK_T": "N", "ADA_PAVED_": "N", "ADA_PARK_S": 0, "ADA_NOTES": null, "CAUTION": null, "FIX_PIER_N": 0, "FIX_PIER_T": null, "FLOAT_PIER": 0, "FLT_PIER_T": null, "PARK_SPACE": 0, "PARK_COVER": null, "LIGHTS": "N", "STREET": null, "CITY": null, "STATE": "NC", "ZIP": 0, "LATITUDE": 35.0563467566, "LONGITUDE": -79.569382748099997, "GAMELAND": "SANDHILLS", "BAA": "<Null>" }, "geometry": { "type": "Point", "coordinates": [ 557665.569799997, 145062.002300002 ] } },
{ "type": "Feature", "properties": { "FID": 51, "NAME": "EDENHOUSE BRIDGE", "ALIAS": "CHOWAN RIVER BRIDGE", "WATER_BODY": "CHOWAN RIVER", "MAINTENANC": "WRC EDENTON DEPOT", "COUNTY": "CHOWAN", "CANOE_ACCE": "N", "PICNIC_ARE": "N", "RESTROOM": "Y", "TRASH_CAN": "Y", "FISH_FEED": "N", "MOTOR_REST": "N", "ADA_DOCK_T": "N", "ADA_PAVED_": "Y", "ADA_PARK_S": 2, "ADA_NOTES": null, "CAUTION": null, "FIX_PIER_N": 1, "FIX_PIER_T": "STRAIGHT", "FLOAT_PIER": 0, "FLT_PIER_T": null, "PARK_SPACE": 18, "PARK_COVER": "PAVED", "LIGHTS": "Y", "STREET": "248 WHARF LANDING RD", "CITY": "EDENTON", "STATE": "NC", "ZIP": 27932, "LATITUDE": 36.053838617700002, "LONGITUDE": -76.683511366399998, "GAMELAND": null, "BAA": "EDENHOUSE BRIDGE" }, "geometry": { "type": "Point", "coordinates": [ 818297.2139, 258009.496399999 ] } },
{ "type": "Feature", "properties": { "FID": 52, "NAME": "HAMILTON", "ALIAS": null, "WATER_BODY": "ROANOKE RIVER", "MAINTENANC": "WRC WILLIAMSTON DEPOT", "COUNTY": "BERTIE", "CANOE_ACCE": "N", "PICNIC_ARE": "N", "RESTROOM": "N", "TRASH_CAN": "N", "FISH_FEED": "N", "MOTOR_REST": "N", "ADA_DOCK_T": "N", "ADA_PAVED_": "Y", "ADA_PARK_S": 2, "ADA_NOTES": null, "CAUTION": null, "FIX_PIER_N": 1, "FIX_PIER_T": "T", "FLOAT_PIER": 0, "FLT_PIER_T": null, "PARK_SPACE": 38, "PARK_COVER": "UNPAVED", "LIGHTS": "N", "STREET": "316 MAIN ST", "CITY": "HAMILTON", "STATE": "NC", "ZIP": 27840, "LATITUDE": 35.947626443799997, "LONGITUDE": -77.202504316399995, "GAMELAND": null, "BAA": "HAMILTON" }, "geometry": { "type": "Point", "coordinates": [ 771759.5707999991, 245257.850699998 ] } },
{ "type": "Feature", "properties": { "FID": 53, "NAME": "ASTORIA LANDING", "ALIAS": "JAMESVILLE", "WATER_BODY": "ROANOKE RIVER", "MAINTENANC": "WRC WILLIAMSTON DEPOT", "COUNTY": "MARTIN", "CANOE_ACCE": "N", "PICNIC_ARE": "N", "RESTROOM": "N", "TRASH_CAN": "N", "FISH_FEED": "N", "MOTOR_REST": "N", "ADA_DOCK_T": "Y", "ADA_PAVED_": "Y", "ADA_PARK_S": 1, "ADA_NOTES": null, "CAUTION": null, "FIX_PIER_N": 1, "FIX_PIER_T": "T", "FLOAT_PIER": 0, "FLT_PIER_T": null, "PARK_SPACE": 4, "PARK_COVER": "UNPAVED", "LIGHTS": "Y", "STREET": "1333 ASTORIA DR", "CITY": "JAMESVILLE", "STATE": "NC", "ZIP": 27846, "LATITUDE": 35.8218495996, "LONGITUDE": -76.902241234000002, "GAMELAND": null, "BAA": "ASTORIA LANDING" }, "geometry": { "type": "Point", "coordinates": [ 799138.476499997, 231837.5297 ] } },
{ "type": "Feature", "properties": { "FID": 54, "NAME": "SHILOH MILLS", "ALIAS": null, "WATER_BODY": "TAR RIVER", "MAINTENANC": "WRC WILLIAMSTON DEPOT", "COUNTY": "EDGECOMBE", "CANOE_ACCE": "N", "PICNIC_ARE": "N", "RESTROOM": "N", "TRASH_CAN": "Y", "FISH_FEED": "N", "MOTOR_REST": "N", "ADA_DOCK_T": "N", "ADA_PAVED_": "Y", "ADA_PARK_S": 1, "ADA_NOTES": null, "CAUTION": null, "FIX_PIER_N": 1, "FIX_PIER_T": "STRAIGHT", "FLOAT_PIER": 0, "FLT_PIER_T": null, "PARK_SPACE": 11, "PARK_COVER": "UNPAVED", "LIGHTS": "N", "STREET": "2273 US HWY 258 N", "CITY": "TARBORO", "STATE": "NC", "ZIP": 27886, "LATITUDE": 35.906396284700001, "LONGITUDE": -77.493600139400002, "GAMELAND": null, "BAA": null }, "geometry": { "type": "Point", "coordinates": [ 745570.427299999, 240246.8343 ] } },
{ "type": "Feature", "properties": { "FID": 55, "NAME": "BAGGETTS LAKE", "ALIAS": "SANDHILLS GAME LAND", "WATER_BODY": "SANDHILLS GL POND", "MAINTENANC": "WRC SANDHILLS DEPOT", "COUNTY": "RICHMOND", "CANOE_ACCE": "N", "PICNIC_ARE": "N", "RESTROOM": "N", "TRASH_CAN": "N", "FISH_FEED": "N", "MOTOR_REST": "N", "ADA_DOCK_T": "N", "ADA_PAVED_": "N", "ADA_PARK_S": 0, "ADA_NOTES": null, "CAUTION": null, "FIX_PIER_N": 0, "FIX_PIER_T": null, "FLOAT_PIER": 0, "FLT_PIER_T": null, "PARK_SPACE": 2, "PARK_COVER": "UNPAVED", "LIGHTS": "N", "STREET": null, "CITY": null, "STATE": "NC", "ZIP": 0, "LATITUDE": 35.042050152199998, "LONGITUDE": -79.621629867099998, "GAMELAND": "SANDHILLS", "BAA": null }, "geometry": { "type": "Point", "coordinates": [ 552890.032499999, 143504.727699999 ] } },
{ "type": "Feature", "properties": { "FID": 56, "NAME": "BIG BROAD ACRES", "ALIAS": "SANDHILLS GAME LAND", "WATER_BODY": "SANDHILLS GL POND", "MAINTENANC": "WRC SANDHILLS DEPOT", "COUNTY": "RICHMOND", "CANOE_ACCE": "N", "PICNIC_ARE": "N", "RESTROOM": "N", "TRASH_CAN": "N", "FISH_FEED": "N", "MOTOR_REST": "N", "ADA_DOCK_T": "N", "ADA_PAVED_": "N", "ADA_PARK_S": 0, "ADA_NOTES": null, "CAUTION": null, "FIX_PIER_N": 0, "FIX_PIER_T": null, "FLOAT_PIER": 0, "FLT_PIER_T": null, "PARK_SPACE": 14, "PARK_COVER": "UNPAVED", "LIGHTS": "N", "STREET": null, "CITY": null, "STATE": "NC", "ZIP": 0, "LATITUDE": 35.016309925400002, "LONGITUDE": -79.544796915700005, "GAMELAND": "SANDHILLS", "BAA": null }, "geometry": { "type": "Point", "coordinates": [ 559883.7444000019, 140608.283100002 ] } },
{ "type": "Feature", "properties": { "FID": 57, "NAME": "SCOTLAND LAKE", "ALIAS": null, "WATER_BODY": "SANDHILLS GL POND", "MAINTENANC": "WRC SANDHILLS DEPOT", "COUNTY": "SCOTLAND", "CANOE_ACCE": "Y", "PICNIC_ARE": "N", "RESTROOM": "N", "TRASH_CAN": "N", "FISH_FEED": "N", "MOTOR_REST": "N", "ADA_DOCK_T": "N", "ADA_PAVED_": "N", "ADA_PARK_S": 0, "ADA_NOTES": null, "CAUTION": null, "FIX_PIER_N": 0, "FIX_PIER_T": null, "FLOAT_PIER": 0, "FLT_PIER_T": null, "PARK_SPACE": 4, "PARK_COVER": "UNPAVED", "LIGHTS": "N", "STREET": "32999 HOFFMAN RD", "CITY": "MARSTON", "STATE": "NC", "ZIP": 28363, "LATITUDE": 34.999589733999997, "LONGITUDE": -79.517110801699999, "GAMELAND": "SANDHILLS", "BAA": null }, "geometry": { "type": "Point", "coordinates": [ 562400.659100004, 138740.064100001 ] } },
{ "type": "Feature", "properties": { "FID": 58, "NAME": "HALLS CREEK", "ALIAS": null, "WATER_BODY": "LITTLE RIVER\/HALLS CREEK", "MAINTENANC": "WRC HERTFORD DEPOT", "COUNTY": "PASQUOTANK", "CANOE_ACCE": "N", "PICNIC_ARE": "N", "RESTROOM": "N", "TRASH_CAN": "N", "FISH_FEED": "N", "MOTOR_REST": "N", "ADA_DOCK_T": "Y", "ADA_PAVED_": "N", "ADA_PARK_S": 0, "ADA_NOTES": null, "CAUTION": null, "FIX_PIER_N": 1, "FIX_PIER_T": "T", "FLOAT_PIER": 0, "FLT_PIER_T": null, "PARK_SPACE": 25, "PARK_COVER": "UNPAVED", "LIGHTS": null, "STREET": "1043 HALLS CREEK RD", "CITY": "ELIZABETH CITY", "STATE": "NC", "ZIP": 27909, "LATITUDE": 36.219546264000002, "LONGITUDE": -76.276417239799997, "GAMELAND": null, "BAA": "HALLS CREEK" }, "geometry": { "type": "Point", "coordinates": [ 854460.025200002, 277320.627300002 ] } },
{ "type": "Feature", "properties": { "FID": 59, "NAME": "RHODES POND", "ALIAS": null, "WATER_BODY": "RHODES POND", "MAINTENANC": "WRC SUGGS MILL POND DEPOT", "COUNTY": "CUMBERLAND", "CANOE_ACCE": "N", "PICNIC_ARE": "N", "RESTROOM": "N", "TRASH_CAN": "N", "FISH_FEED": "N", "MOTOR_REST": "Y", "ADA_DOCK_T": "Y", "ADA_PAVED_": "Y", "ADA_PARK_S": 1, "ADA_NOTES": null, "CAUTION": null, "FIX_PIER_N": 0, "FIX_PIER_T": null, "FLOAT_PIER": 1, "FLT_PIER_T": "T", "PARK_SPACE": 8, "PARK_COVER": "UNPAVED", "LIGHTS": "N", "STREET": "11055 DUNN RD", "CITY": "DUNN", "STATE": "NC", "ZIP": 28334, "LATITUDE": 35.226006235500002, "LONGITUDE": -78.651898883699999, "GAMELAND": null, "BAA": "RHODES POND" }, "geometry": { "type": "Point", "coordinates": [ 641287.0124000011, 163788.816 ] } },
{ "type": "Feature", "properties": { "FID": 60, "NAME": "PAINTER BRANCH", "ALIAS": null, "WATER_BODY": "LITTLE TENNESSEE RIVER", "MAINTENANC": "WRC ANDREWS DEPOT", "COUNTY": "SWAIN", "CANOE_ACCE": "Y", "PICNIC_ARE": "N", "RESTROOM": "N", "TRASH_CAN": "N", "FISH_FEED": "N", "MOTOR_REST": "N", "ADA_DOCK_T": "N", "ADA_PAVED_": "N", "ADA_PARK_S": 0, "ADA_NOTES": null, "CAUTION": "SLIDE FOR DRIFT BOATS AVAILABLE. MOTORBOATS NOT RECOMMENDED.", "FIX_PIER_N": 0, "FIX_PIER_T": null, "FLOAT_PIER": 0, "FLT_PIER_T": null, "PARK_SPACE": 18, "PARK_COVER": "UNPAVED", "LIGHTS": "N", "STREET": "NEEDMORE RD", "CITY": null, "STATE": "NC", "ZIP": 0, "LATITUDE": 35.341782354300001, "LONGITUDE": -83.527849842799995, "GAMELAND": "NEEDMORE", "BAA": null }, "geometry": { "type": "Point", "coordinates": [ 198182.781599998, 185960.811700001 ] } },
{ "type": "Feature", "properties": { "FID": 61, "NAME": "RATTLESNAKE", "ALIAS": null, "WATER_BODY": "LITTLE TENNESSEE RIVER", "MAINTENANC": "WRC ANDREWS DEPOT", "COUNTY": "SWAIN", "CANOE_ACCE": "Y", "PICNIC_ARE": "N", "RESTROOM": "N", "TRASH_CAN": "N", "FISH_FEED": "N", "MOTOR_REST": "N", "ADA_DOCK_T": "N", "ADA_PAVED_": "N", "ADA_PARK_S": 0, "ADA_NOTES": null, "CAUTION": "SLIDE FOR DRIFT BOATS AVAILABLE. MOTORBOATS NOT RECOMMENDED.", "FIX_PIER_N": 0, "FIX_PIER_T": null, "FLOAT_PIER": 0, "FLT_PIER_T": null, "PARK_SPACE": 18, "PARK_COVER": "UNPAVED", "LIGHTS": "N", "STREET": "NEEDMORE RD", "CITY": null, "STATE": "NC", "ZIP": 0, "LATITUDE": 35.307087328400002, "LONGITUDE": -83.522335663999996, "GAMELAND": "NEEDMORE", "BAA": "<Null>" }, "geometry": { "type": "Point", "coordinates": [ 198508.2, 182093.1602 ] } },
{ "type": "Feature", "properties": { "FID": 62, "NAME": "TELLICO CREEK", "ALIAS": null, "WATER_BODY": "LITTLE TENNESSEE RIVER", "MAINTENANC": "WRC FRANKLIN DEPOT", "COUNTY": "MACON", "CANOE_ACCE": "Y", "PICNIC_ARE": "N", "RESTROOM": "N", "TRASH_CAN": "N", "FISH_FEED": "N", "MOTOR_REST": "N", "ADA_DOCK_T": "N", "ADA_PAVED_": "N", "ADA_PARK_S": 0, "ADA_NOTES": null, "CAUTION": "SLIDE FOR DRIFT BOATS AVAILABLE. MOTORBOATS NOT RECOMMENDED.", "FIX_PIER_N": 0, "FIX_PIER_T": null, "FLOAT_PIER": 0, "FLT_PIER_T": null, "PARK_SPACE": 4, "PARK_COVER": "UNPAVED", "LIGHTS": "N", "STREET": "NEEDMORE RD", "CITY": null, "STATE": "NC", "ZIP": 0, "LATITUDE": 35.288864633400003, "LONGITUDE": -83.491481401200005, "GAMELAND": "NEEDMORE", "BAA": "<Null>" }, "geometry": { "type": "Point", "coordinates": [ 201219.587800004, 179946.4133 ] } },
{ "type": "Feature", "properties": { "FID": 63, "NAME": "CEDAR POINT", "ALIAS": null, "WATER_BODY": "INTRACOASTAL WATERWAY", "MAINTENANC": "WRC CHINQUAPIN\/HOLLY SHELTER DEPOT", "COUNTY": "CARTERET", "CANOE_ACCE": "N", "PICNIC_ARE": "N", "RESTROOM": "N", "TRASH_CAN": "N", "FISH_FEED": "N", "MOTOR_REST": "N", "ADA_DOCK_T": "Y", "ADA_PAVED_": "Y", "ADA_PARK_S": 3, "ADA_NOTES": null, "CAUTION": null, "FIX_PIER_N": 0, "FIX_PIER_T": null, "FLOAT_PIER": 0, "FLT_PIER_T": null, "PARK_SPACE": 0, "PARK_COVER": null, "LIGHTS": null, "STREET": "144 CEDAR POINT BLVD", "CITY": "CEDAR POINT", "STATE": "NC", "ZIP": 28584, "LATITUDE": 34.677616220899999, "LONGITUDE": -77.108421599500005, "GAMELAND": null, "BAA": "CEDAR POINT" }, "geometry": { "type": "Point", "coordinates": [ 782930.536300004, 104553.164700001 ] } },
{ "type": "Feature", "properties": { "FID": 64, "NAME": "FISH TOP", "ALIAS": "GREEN RIVER GAME LAND", "WATER_BODY": "GREEN RIVER", "MAINTENANC": "WRC MARION DEPOT", "COUNTY": "POLK", "CANOE_ACCE": null, "PICNIC_ARE": null, "RESTROOM": null, "TRASH_CAN": null, "FISH_FEED": null, "MOTOR_REST": null, "ADA_DOCK_T": null, "ADA_PAVED_": null, "ADA_PARK_S": 0, "ADA_NOTES": null, "CAUTION": null, "FIX_PIER_N": 0, "FIX_PIER_T": null, "FLOAT_PIER": 0, "FLT_PIER_T": null, "PARK_SPACE": 0, "PARK_COVER": null, "LIGHTS": null, "STREET": "GREEN RIVER RD", "CITY": null, "STATE": "NC", "ZIP": 0, "LATITUDE": 35.264207248600002, "LONGITUDE": -82.324735172900006, "GAMELAND": "GREEN RIVER", "BAA": null }, "geometry": { "type": "Point", "coordinates": [ 307166.122599997, 173035.9553 ] } },
{ "type": "Feature", "properties": { "FID": 65, "NAME": "GRAYS BRIDGE", "ALIAS": "BROAD RIVER", "WATER_BODY": "BROAD RIVER", "MAINTENANC": "WRC MARION DEPOT", "COUNTY": "RUTHERFORD", "CANOE_ACCE": "Y", "PICNIC_ARE": "N", "RESTROOM": "N", "TRASH_CAN": "N", "FISH_FEED": "N", "MOTOR_REST": "N", "ADA_DOCK_T": "N", "ADA_PAVED_": "N", "ADA_PARK_S": 0, "ADA_NOTES": null, "CAUTION": null, "FIX_PIER_N": 0, "FIX_PIER_T": null, "FLOAT_PIER": 0, "FLT_PIER_T": null, "PARK_SPACE": 6, "PARK_COVER": "UNPAVED", "LIGHTS": "N", "STREET": "520 GRAYS RD", "CITY": "RUTHERFORDTON", "STATE": "NC", "ZIP": 28139, "LATITUDE": 35.328423458700001, "LONGITUDE": -82.026434920300005, "GAMELAND": null, "BAA": null }, "geometry": { "type": "Point", "coordinates": [ 334509.376999997, 179288.230099998 ] } },
{ "type": "Feature", "properties": { "FID": 66, "NAME": "WILSON CREEK MILL", "ALIAS": "LUTZ TRACT", "WATER_BODY": "WILSON CREEK", "MAINTENANC": "WRC MORGANTON DEPOT", "COUNTY": "CALDWELL", "CANOE_ACCE": "N", "PICNIC_ARE": "N", "RESTROOM": "N", "TRASH_CAN": "N", "FISH_FEED": "N", "MOTOR_REST": "N", "ADA_DOCK_T": "N", "ADA_PAVED_": "N", "ADA_PARK_S": 1, "ADA_NOTES": "UPAVED ADA PARKING SPACE, PATH TO PIER", "CAUTION": null, "FIX_PIER_N": 1, "FIX_PIER_T": "STRAIGHT", "FLOAT_PIER": 0, "FLT_PIER_T": null, "PARK_SPACE": 20, "PARK_COVER": "UNPAVED", "LIGHTS": "N", "STREET": "BROWN MOUNTAIN BEACH RD", "CITY": "MORTIMER", "STATE": "NC", "ZIP": 28645, "LATITUDE": 250795.7733, "LONGITUDE": 360853.4291, "GAMELAND": "PISGAH WRC", "BAA": null }, "geometry": { "type": "Point", "coordinates": [ 360853.429099999, 250795.7733 ] } },
{ "type": "Feature", "properties": { "FID": 67, "NAME": "CROSS POINT LANDING", "ALIAS": "DAM SITE", "WATER_BODY": "SHEARON HARRIS RESERVOIR", "MAINTENANC": "WRC SYKES DEPOT", "COUNTY": "CHATHAM", "CANOE_ACCE": "N", "PICNIC_ARE": "N", "RESTROOM": "N", "TRASH_CAN": "N", "FISH_FEED": "N", "MOTOR_REST": "N", "ADA_DOCK_T": "Y", "ADA_PAVED_": "Y", "ADA_PARK_S": 2, "ADA_NOTES": null, "CAUTION": null, "FIX_PIER_N": 0, "FIX_PIER_T": null, "FLOAT_PIER": 1, "FLT_PIER_T": "T", "PARK_SPACE": 15, "PARK_COVER": "PAVED", "LIGHTS": "Y", "STREET": "233 CROSS POINT RD", "CITY": "NEW HILL", "STATE": "NC", "ZIP": 27562, "LATITUDE": 35.573459616900003, "LONGITUDE": -78.976636067200005, "GAMELAND": "HARRIS", "BAA": "CROSS POINT LANDING" }, "geometry": { "type": "Point", "coordinates": [ 611718.847099997, 202278.013700001 ] } },
{ "type": "Feature", "properties": { "FID": 68, "NAME": "CASTLE HAYNE", "ALIAS": null, "WATER_BODY": "NORTHEAST CAPE FEAR RIVER", "MAINTENANC": "WRC BOLIVIA DEPOT", "COUNTY": "NEW HANOVER", "CANOE_ACCE": null, "PICNIC_ARE": null, "RESTROOM": null, "TRASH_CAN": null, "FISH_FEED": null, "MOTOR_REST": null, "ADA_DOCK_T": null, "ADA_PAVED_": null, "ADA_PARK_S": 0, "ADA_NOTES": null, "CAUTION": null, "FIX_PIER_N": 0, "FIX_PIER_T": null, "FLOAT_PIER": 0, "FLT_PIER_T": null, "PARK_SPACE": 0, "PARK_COVER": null, "LIGHTS": null, "STREET": null, "CITY": null, "STATE": "NC", "ZIP": 0, "LATITUDE": 34.363734133100003, "LONGITUDE": -77.897158269299993, "GAMELAND": null, "BAA": "CASTLE HAYNE" }, "geometry": { "type": "Point", "coordinates": [ 711047.771200001, 68647.315200001 ] } },
{ "type": "Feature", "properties": { "FID": 69, "NAME": "BLOUNTS CREEK", "ALIAS": null, "WATER_BODY": "BLOUNTS CREEK", "MAINTENANC": "WRC RHEMS DEPOT", "COUNTY": "BEAUFORT", "CANOE_ACCE": "Y", "PICNIC_ARE": "N", "RESTROOM": "N", "TRASH_CAN": "N", "FISH_FEED": "N", "MOTOR_REST": "N", "ADA_DOCK_T": "Y", "ADA_PAVED_": "Y", "ADA_PARK_S": 2, "ADA_NOTES": null, "CAUTION": null, "FIX_PIER_N": 1, "FIX_PIER_T": "T", "FLOAT_PIER": 0, "FLT_PIER_T": null, "PARK_SPACE": 0, "PARK_COVER": "PAVED", "LIGHTS": "N", "STREET": "350 CRISP LANDING RD", "CITY": "CHOCOWINITY", "STATE": "NC", "ZIP": 0, "LATITUDE": 35.407282575799996, "LONGITUDE": -76.962846754200001, "GAMELAND": null, "BAA": "BLOUNTS CREEK" }, "geometry": { "type": "Point", "coordinates": [ 794607.1633, 185741.022999998 ] } },
{ "type": "Feature", "properties": { "FID": 70, "NAME": "WOLF SONG RIDGE", "ALIAS": null, "WATER_BODY": "NORTH TOE RIVER", "MAINTENANC": "WRC BURNSVILLE DEPOT", "COUNTY": "YANCEY", "CANOE_ACCE": null, "PICNIC_ARE": null, "RESTROOM": null, "TRASH_CAN": null, "FISH_FEED": null, "MOTOR_REST": null, "ADA_DOCK_T": null, "ADA_PAVED_": null, "ADA_PARK_S": 0, "ADA_NOTES": null, "CAUTION": null, "FIX_PIER_N": 0, "FIX_PIER_T": null, "FLOAT_PIER": 0, "FLT_PIER_T": null, "PARK_SPACE": 0, "PARK_COVER": null, "LIGHTS": null, "STREET": null, "CITY": "GREEN MOUNTAIN", "STATE": "NC", "ZIP": 0, "LATITUDE": 35.993505318300002, "LONGITUDE": -82.249333476100006, "GAMELAND": null, "BAA": null }, "geometry": { "type": "Point", "coordinates": [ 316670.437100001, 253674.668499999 ] } },
{ "type": "Feature", "properties": { "FID": 71, "NAME": "RED HILL", "ALIAS": "HWY 197", "WATER_BODY": "NORTH TOE RIVER", "MAINTENANC": "WRC BURNSVILLE DEPOT", "COUNTY": "YANCEY", "CANOE_ACCE": null, "PICNIC_ARE": null, "RESTROOM": null, "TRASH_CAN": null, "FISH_FEED": null, "MOTOR_REST": null, "ADA_DOCK_T": null, "ADA_PAVED_": null, "ADA_PARK_S": 0, "ADA_NOTES": null, "CAUTION": null, "FIX_PIER_N": 0, "FIX_PIER_T": null, "FLOAT_PIER": 0, "FLT_PIER_T": null, "PARK_SPACE": 0, "PARK_COVER": null, "LIGHTS": null, "STREET": null, "CITY": null, "STATE": "NC", "ZIP": 0, "LATITUDE": 36.013056721600002, "LONGITUDE": -82.229903939099998, "GAMELAND": null, "BAA": null }, "geometry": { "type": "Point", "coordinates": [ 318491.979500003, 255785.673500001 ] } },
{ "type": "Feature", "properties": { "FID": 72, "NAME": "SAWMILL CREEK", "ALIAS": null, "WATER_BODY": "LITTLE TENNESSEE RIVER", "MAINTENANC": "WRC ANDREWS DEPOT", "COUNTY": "SWAIN", "CANOE_ACCE": "N", "PICNIC_ARE": "N", "RESTROOM": "N", "TRASH_CAN": "N", "FISH_FEED": "N", "MOTOR_REST": "N", "ADA_DOCK_T": "N", "ADA_PAVED_": "N", "ADA_PARK_S": 0, "ADA_NOTES": null, "CAUTION": "BANK ACCESS ONLY.", "FIX_PIER_N": 0, "FIX_PIER_T": null, "FLOAT_PIER": 0, "FLT_PIER_T": null, "PARK_SPACE": 20, "PARK_COVER": "UNPAVED", "LIGHTS": "N", "STREET": "LOWER SAWMILL CREEK RD", "CITY": "BRYSON CITY", "STATE": "NC", "ZIP": 0, "LATITUDE": 35.356434398499999, "LONGITUDE": -83.506333818900004, "GAMELAND": "NEEDMORE", "BAA": null }, "geometry": { "type": "Point", "coordinates": [ 200211.284000002, 187472.924199998 ] } },
{ "type": "Feature", "properties": { "FID": 73, "NAME": "BRUSH CREEK", "ALIAS": null, "WATER_BODY": "LITTLE TENNESSEE RIVER", "MAINTENANC": "WRC ANDREWS DEPOT", "COUNTY": "SWAIN", "CANOE_ACCE": "Y", "PICNIC_ARE": "N", "RESTROOM": "N", "TRASH_CAN": "N", "FISH_FEED": "N", "MOTOR_REST": "N", "ADA_DOCK_T": "N", "ADA_PAVED_": "N", "ADA_PARK_S": 0, "ADA_NOTES": null, "CAUTION": null, "FIX_PIER_N": 0, "FIX_PIER_T": null, "FLOAT_PIER": 0, "FLT_PIER_T": null, "PARK_SPACE": 6, "PARK_COVER": "UNPAVED", "LIGHTS": "N", "STREET": "LOWER NEEDMORE RD", "CITY": null, "STATE": "NC", "ZIP": 0, "LATITUDE": 35.3276593553, "LONGITUDE": -83.513783642800007, "GAMELAND": "NEEDMORE", "BAA": null }, "geometry": { "type": "Point", "coordinates": [ 199388.797200002, 184337.522700001 ] } },
{ "type": "Feature", "properties": { "FID": 74, "NAME": "NC HWY 109", "ALIAS": "HWY 109", "WATER_BODY": "UWHARRIE RIVER", "MAINTENANC": "WRC HYDRO DEPOT", "COUNTY": "MONTGOMERY", "CANOE_ACCE": "Y", "PICNIC_ARE": "N", "RESTROOM": "N", "TRASH_CAN": "N", "FISH_FEED": "N", "MOTOR_REST": "N", "ADA_DOCK_T": "N", "ADA_PAVED_": "Y", "ADA_PARK_S": 1, "ADA_NOTES": null, "CAUTION": null, "FIX_PIER_N": 0, "FIX_PIER_T": null, "FLOAT_PIER": 0, "FLT_PIER_T": null, "PARK_SPACE": 5, "PARK_COVER": "UNPAVED", "LIGHTS": "N", "STREET": "3597 NC HWY 109 N", "CITY": "TROY", "STATE": "NC", "ZIP": 27371, "LATITUDE": 35.4313301834, "LONGITUDE": -80.016660705600003, "GAMELAND": null, "BAA": null }, "geometry": { "type": "Point", "coordinates": [ 517294.698100001, 186983.0625 ] } },
{ "type": "Feature", "properties": { "FID": 75, "NAME": "COUNTY LINE", "ALIAS": null, "WATER_BODY": "KERR LAKE", "MAINTENANC": "WRC WELDON DEPOT", "COUNTY": "WARREN", "CANOE_ACCE": "N", "PICNIC_ARE": "N", "RESTROOM": "N", "TRASH_CAN": "Y", "FISH_FEED": "N", "MOTOR_REST": "N", "ADA_DOCK_T": "N", "ADA_PAVED_": "Y", "ADA_PARK_S": 1, "ADA_NOTES": null, "CAUTION": null, "FIX_PIER_N": 0, "FIX_PIER_T": null, "FLOAT_PIER": 1, "FLT_PIER_T": "T", "PARK_SPACE": 12, "PARK_COVER": "PAVED", "LIGHTS": "Y", "STREET": "188 COUNTY LINE RD", "CITY": "MANSON", "STATE": "NC", "ZIP": 27533, "LATITUDE": 36.5222219001, "LONGITUDE": -78.314648822600006, "GAMELAND": null, "BAA": "COUNTY LINE" }, "geometry": { "type": "Point", "coordinates": [ 670991.8329000029, 307762.1939 ] } },
{ "type": "Feature", "properties": { "FID": 76, "NAME": "FALLS LAKE DAM", "ALIAS": null, "WATER_BODY": "FALLS LAKE", "MAINTENANC": "WRC BUTNER\/ROGERS LAKE DEPOT", "COUNTY": "WAKE", "CANOE_ACCE": "N", "PICNIC_ARE": "Y", "RESTROOM": "N", "TRASH_CAN": "Y", "FISH_FEED": "N", "MOTOR_REST": "N", "ADA_DOCK_T": null, "ADA_PAVED_": "Y", "ADA_PARK_S": 1, "ADA_NOTES": null, "CAUTION": null, "FIX_PIER_N": 0, "FIX_PIER_T": null, "FLOAT_PIER": 1, "FLT_PIER_T": "T", "PARK_SPACE": 8, "PARK_COVER": "UNPAVED", "LIGHTS": null, "STREET": "11045 FALLS OF NEUSE RD", "CITY": "WAKE FOREST", "STATE": "NC", "ZIP": 27614, "LATITUDE": 35.940365091399997, "LONGITUDE": -78.583695207000005, "GAMELAND": "BUTNER-FALLS OF NEUSE", "BAA": null }, "geometry": { "type": "Point", "coordinates": [ 647162.8473, 243062.8004 ] } },
{ "type": "Feature", "properties": { "FID": 77, "NAME": "WISHONS FISHING HOLE", "ALIAS": "WISHON'S FISHIN' HOLE", "WATER_BODY": "NANTAHALA RIVER", "MAINTENANC": "WRC ANDREWS DEPOT", "COUNTY": "MACON", "CANOE_ACCE": "Y", "PICNIC_ARE": "N", "RESTROOM": "N", "TRASH_CAN": "N", "FISH_FEED": "N", "MOTOR_REST": "Y", "ADA_DOCK_T": "Y", "ADA_PAVED_": "Y", "ADA_PARK_S": 2, "ADA_NOTES": null, "CAUTION": null, "FIX_PIER_N": 1, "FIX_PIER_T": "STRAIGHT", "FLOAT_PIER": 0, "FLT_PIER_T": null, "PARK_SPACE": 10, "PARK_COVER": "UNPAVED", "LIGHTS": "N", "STREET": "27540 WAYAH RD", "CITY": "TOPTON", "STATE": "NC", "ZIP": 28781, "LATITUDE": 35.269728518299999, "LONGITUDE": -83.675610252699997, "GAMELAND": null, "BAA": null }, "geometry": { "type": "Point", "coordinates": [ 184390.1219, 178598.960299999 ] } },
{ "type": "Feature", "properties": { "FID": 78, "NAME": "RED MILL", "ALIAS": null, "WATER_BODY": "ENO RIVER", "MAINTENANC": "WRC BUTNER DEPOT & NCDOT", "COUNTY": "DURHAM", "CANOE_ACCE": "N", "PICNIC_ARE": "N", "RESTROOM": "N", "TRASH_CAN": "N", "FISH_FEED": "N", "MOTOR_REST": "N", "ADA_DOCK_T": "N", "ADA_PAVED_": "N", "ADA_PARK_S": 0, "ADA_NOTES": null, "CAUTION": null, "FIX_PIER_N": 0, "FIX_PIER_T": null, "FLOAT_PIER": 0, "FLT_PIER_T": null, "PARK_SPACE": 8, "PARK_COVER": "UNPAVED", "LIGHTS": "N", "STREET": "131 OLD RED MILL RD", "CITY": "DURHAM", "STATE": "NC", "ZIP": 27704, "LATITUDE": 36.0876808115, "LONGITUDE": -78.823037924999994, "GAMELAND": "BUTNER-FALLS OF NEUSE", "BAA": null }, "geometry": { "type": "Point", "coordinates": [ 625563.968999997, 259357.3169 ] } },
{ "type": "Feature", "properties": { "FID": 79, "NAME": "LEWISTON WOODVILLE", "ALIAS": null, "WATER_BODY": "ROANOKE RIVER", "MAINTENANC": "WRC WILLIAMSTON DEPOT", "COUNTY": "BERTIE", "CANOE_ACCE": "N", "PICNIC_ARE": "N", "RESTROOM": "N", "TRASH_CAN": "N", "FISH_FEED": "N", "MOTOR_REST": "N", "ADA_DOCK_T": "N", "ADA_PAVED_": "Y", "ADA_PARK_S": 1, "ADA_NOTES": null, "CAUTION": null, "FIX_PIER_N": 0, "FIX_PIER_T": "T", "FLOAT_PIER": 0, "FLT_PIER_T": null, "PARK_SPACE": 7, "PARK_COVER": "UNPAVED", "LIGHTS": "N", "STREET": "838 WEEPING MARY RD", "CITY": "LEWISTON WOODVILLE", "STATE": "NC", "ZIP": 27849, "LATITUDE": 36.097621119400003, "LONGITUDE": -77.249735005900007, "GAMELAND": null, "BAA": "LEWISTON WOODVILLE" }, "geometry": { "type": "Point", "coordinates": [ 767205.755199999, 261821.836800002 ] } },
{ "type": "Feature", "properties": { "FID": 80, "NAME": "LENA DAVIS LANDING", "ALIAS": null, "WATER_BODY": "TUCKASEGEE RIVER", "MAINTENANC": "WRC BALSAM DEPOT", "COUNTY": "JACKSON", "CANOE_ACCE": "N", "PICNIC_ARE": "N", "RESTROOM": "Y", "TRASH_CAN": "N", "FISH_FEED": "N", "MOTOR_REST": "N", "ADA_DOCK_T": "N", "ADA_PAVED_": "Y", "ADA_PARK_S": 3, "ADA_NOTES": "3 PARKING SPACES, PAVED WALKWAY", "CAUTION": null, "FIX_PIER_N": 0, "FIX_PIER_T": null, "FLOAT_PIER": 0, "FLT_PIER_T": null, "PARK_SPACE": 18, "PARK_COVER": "PAVED", "LIGHTS": "N", "STREET": "111 CASEY RD", "CITY": "CULLOWHEE", "STATE": "NC", "ZIP": 28723, "LATITUDE": 35.314820092300003, "LONGITUDE": -83.175730595900006, "GAMELAND": null, "BAA": null }, "geometry": { "type": "Point", "coordinates": [ 230032.289999999, 181569.838199999 ] } },
{ "type": "Feature", "properties": { "FID": 81, "NAME": "ROCKY BRANCH", "ALIAS": null, "WATER_BODY": "NANTAHALA LAKE", "MAINTENANC": "WRC ANDREWS DEPOT", "COUNTY": "MACON", "CANOE_ACCE": "Y", "PICNIC_ARE": "N", "RESTROOM": "Y", "TRASH_CAN": "N", "FISH_FEED": "N", "MOTOR_REST": "N", "ADA_DOCK_T": "Y", "ADA_PAVED_": "Y", "ADA_PARK_S": 3, "ADA_NOTES": null, "CAUTION": null, "FIX_PIER_N": 1, "FIX_PIER_T": "T", "FLOAT_PIER": 0, "FLT_PIER_T": null, "PARK_SPACE": 37, "PARK_COVER": "PAVED", "LIGHTS": null, "STREET": "16102 WAYAH RED", "CITY": "AQUONE", "STATE": "NC", "ZIP": 28781, "LATITUDE": 35.181438010999997, "LONGITUDE": -83.656846356200006, "GAMELAND": null, "BAA": "ROCKY BRANCH" }, "geometry": { "type": "Point", "coordinates": [ 185636.0189, 168735.4045 ] } },
{ "type": "Feature", "properties": { "FID": 82, "NAME": "BEAR CREEK", "ALIAS": "BEAR LAKE", "WATER_BODY": "BEAR CREEK LAKE", "MAINTENANC": "WRC BALSAM DEPOT", "COUNTY": "JACKSON", "CANOE_ACCE": "Y", "PICNIC_ARE": "N", "RESTROOM": "Y", "TRASH_CAN": "N", "FISH_FEED": null, "MOTOR_REST": "N", "ADA_DOCK_T": "Y", "ADA_PAVED_": "Y", "ADA_PARK_S": 2, "ADA_NOTES": "PAVED WALKWAY, DOCK HANDRAILS", "CAUTION": null, "FIX_PIER_N": 1, "FIX_PIER_T": null, "FLOAT_PIER": 0, "FLT_PIER_T": null, "PARK_SPACE": 2, "PARK_COVER": "PAVED", "LIGHTS": "Y", "STREET": "664 BEAR LAKE RD", "CITY": "TUCKASEGEE", "STATE": "NC", "ZIP": 28783, "LATITUDE": 35.244006374400001, "LONGITUDE": -83.064087241899998, "GAMELAND": null, "BAA": "BEAR CREEK" }, "geometry": { "type": "Point", "coordinates": [ 239862.072099999, 173215.146499999 ] } },
{ "type": "Feature", "properties": { "FID": 83, "NAME": "POWERHOUSE", "ALIAS": "POWERHOUSE SITE", "WATER_BODY": "GLENVILLE LAKE\/THORPE LAKE", "MAINTENANC": "WRC FRANKLIN DEPOT", "COUNTY": "JACKSON", "CANOE_ACCE": "N", "PICNIC_ARE": "N", "RESTROOM": "Y", "TRASH_CAN": "N", "FISH_FEED": null, "MOTOR_REST": "N", "ADA_DOCK_T": "Y", "ADA_PAVED_": "Y", "ADA_PARK_S": 1, "ADA_NOTES": null, "CAUTION": null, "FIX_PIER_N": 1, "FIX_PIER_T": "T", "FLOAT_PIER": 0, "FLT_PIER_T": null, "PARK_SPACE": 4, "PARK_COVER": "UNPAVED", "LIGHTS": "Y", "STREET": "1371 PINE CREEK RD", "CITY": "CULLOWHEE", "STATE": "NC", "ZIP": 28723, "LATITUDE": 35.195170153900001, "LONGITUDE": -83.149975609199998, "GAMELAND": null, "BAA": "POWERHOUSE SITE" }, "geometry": { "type": "Point", "coordinates": [ 231817.309, 168210.357900001 ] } },
{ "type": "Feature", "properties": { "FID": 84, "NAME": "LAKE EMORY", "ALIAS": null, "WATER_BODY": "LITTLE TENNESSEE RIVER", "MAINTENANC": "WRC FRANKLIN DEPOT", "COUNTY": "MACON", "CANOE_ACCE": "Y", "PICNIC_ARE": "N", "RESTROOM": "N", "TRASH_CAN": "N", "FISH_FEED": null, "MOTOR_REST": null, "ADA_DOCK_T": "Y", "ADA_PAVED_": "Y", "ADA_PARK_S": 3, "ADA_NOTES": null, "CAUTION": null, "FIX_PIER_N": 0, "FIX_PIER_T": null, "FLOAT_PIER": 0, "FLT_PIER_T": null, "PARK_SPACE": 0, "PARK_COVER": "UNPAVED", "LIGHTS": "N", "STREET": "426 LAKESIDE DR", "CITY": "FRANKLIN", "STATE": "NC", "ZIP": 28734, "LATITUDE": 35.189739300399999, "LONGITUDE": -83.378465328900006, "GAMELAND": null, "BAA": "LAKE EMORY" }, "geometry": { "type": "Point", "coordinates": [ 211063.3926, 168445.498 ] } },
{ "type": "Feature", "properties": { "FID": 85, "NAME": "BRYSON TRAILRACE", "ALIAS": null, "WATER_BODY": "NANTAHALA RIVER", "MAINTENANC": "WRC BALSAM DEPOT", "COUNTY": "MACON", "CANOE_ACCE": null, "PICNIC_ARE": null, "RESTROOM": null, "TRASH_CAN": null, "FISH_FEED": null, "MOTOR_REST": null, "ADA_DOCK_T": "Y", "ADA_PAVED_": "Y", "ADA_PARK_S": 1, "ADA_NOTES": null, "CAUTION": null, "FIX_PIER_N": 0, "FIX_PIER_T": null, "FLOAT_PIER": 0, "FLT_PIER_T": null, "PARK_SPACE": 5, "PARK_COVER": "PAVED", "LIGHTS": null, "STREET": null, "CITY": null, "STATE": "NC", "ZIP": 0, "LATITUDE": 35.446218177900001, "LONGITUDE": -83.375250053900004, "GAMELAND": null, "BAA": null }, "geometry": { "type": "Point", "coordinates": [ 212549.924400002, 196913.258200001 ] } },
{ "type": "Feature", "properties": { "FID": 86, "NAME": "MISSION DAM", "ALIAS": null, "WATER_BODY": "HIWASSEE RIVER", "MAINTENANC": "WRC ANDREWS DEPOT", "COUNTY": "CLAY", "CANOE_ACCE": null, "PICNIC_ARE": null, "RESTROOM": null, "TRASH_CAN": null, "FISH_FEED": null, "MOTOR_REST": null, "ADA_DOCK_T": null, "ADA_PAVED_": null, "ADA_PARK_S": 0, "ADA_NOTES": null, "CAUTION": null, "FIX_PIER_N": 0, "FIX_PIER_T": null, "FLOAT_PIER": 0, "FLT_PIER_T": null, "PARK_SPACE": 0, "PARK_COVER": null, "LIGHTS": null, "STREET": null, "CITY": null, "STATE": "NC", "ZIP": 0, "LATITUDE": 35.066492212500002, "LONGITUDE": -83.926513971600002, "GAMELAND": null, "BAA": null }, "geometry": { "type": "Point", "coordinates": [ 160472.213500001, 157185.302999999 ] } },
{ "type": "Feature", "properties": { "FID": 87, "NAME": "COXE ROAD", "ALIAS": null, "WATER_BODY": "BROAD RIVER", "MAINTENANC": "WRC MARION DEPOT", "COUNTY": "RUTHERFORD", "CANOE_ACCE": "Y", "PICNIC_ARE": "N", "RESTROOM": "N", "TRASH_CAN": "N", "FISH_FEED": "N", "MOTOR_REST": null, "ADA_DOCK_T": "N", "ADA_PAVED_": "Y", "ADA_PARK_S": 0, "ADA_NOTES": null, "CAUTION": null, "FIX_PIER_N": 0, "FIX_PIER_T": null, "FLOAT_PIER": 0, "FLT_PIER_T": null, "PARK_SPACE": 6, "PARK_COVER": "UNPAVED", "LIGHTS": "N", "STREET": null, "CITY": null, "STATE": "NC", "ZIP": 0, "LATITUDE": 35.292611261600001, "LONGITUDE": -81.991206728099996, "GAMELAND": null, "BAA": null }, "geometry": { "type": "Point", "coordinates": [ 337590.827699997, 175220.253400002 ] } },
{ "type": "Feature", "properties": { "FID": 88, "NAME": "PENLAND", "ALIAS": null, "WATER_BODY": "NORTH TOE RIVER", "MAINTENANC": "WRC BURNSVILLE DEPOT", "COUNTY": "MITCHELL", "CANOE_ACCE": "Y", "PICNIC_ARE": "N", "RESTROOM": "N", "TRASH_CAN": "N", "FISH_FEED": "N", "MOTOR_REST": "N", "ADA_DOCK_T": "N", "ADA_PAVED_": "N", "ADA_PARK_S": 0, "ADA_NOTES": null, "CAUTION": null, "FIX_PIER_N": 0, "FIX_PIER_T": null, "FLOAT_PIER": 0, "FLT_PIER_T": null, "PARK_SPACE": 3, "PARK_COVER": "UNPAVED", "LIGHTS": "N", "STREET": null, "CITY": null, "STATE": "NC", "ZIP": 0, "LATITUDE": 35.929305911199997, "LONGITUDE": -82.1128813726, "GAMELAND": null, "BAA": null }, "geometry": { "type": "Point", "coordinates": [ 328744.288000003, 246160.878400002 ] } },
{ "type": "Feature", "properties": { "FID": 89, "NAME": "TANASEE", "ALIAS": null, "WATER_BODY": "TANASEE CREEK LAKE", "MAINTENANC": "WRC BALSAM DEPOT", "COUNTY": "JACKSON", "CANOE_ACCE": "Y", "PICNIC_ARE": "N", "RESTROOM": "N", "TRASH_CAN": "N", "FISH_FEED": "N", "MOTOR_REST": "N", "ADA_DOCK_T": null, "ADA_PAVED_": null, "ADA_PARK_S": 0, "ADA_NOTES": null, "CAUTION": "SHALLOW-DRAFT VESSELS RECOMMENDED DURING LOW WATER LEVELS.", "FIX_PIER_N": 0, "FIX_PIER_T": null, "FLOAT_PIER": 0, "FLT_PIER_T": null, "PARK_SPACE": 6, "PARK_COVER": "UNPAVED", "LIGHTS": "N", "STREET": "14280 CANADA RD", "CITY": "TUCKASEGEE", "STATE": "NC", "ZIP": 28783, "LATITUDE": 35.2161720589, "LONGITUDE": -82.987800834200002, "GAMELAND": null, "BAA": null }, "geometry": { "type": "Point", "coordinates": [ 246665.993100002, 169933.102600001 ] } },
{ "type": "Feature", "properties": { "FID": 90, "NAME": "TUCKASEGEE POWERHOUSE", "ALIAS": null, "WATER_BODY": "WEST FORK TUCKASEGEE RIVER", "MAINTENANC": "WRC BALSAM DEPOT", "COUNTY": "JACKSON", "CANOE_ACCE": "Y", "PICNIC_ARE": "N", "RESTROOM": "N", "TRASH_CAN": "N", "FISH_FEED": "N", "MOTOR_REST": "N", "ADA_DOCK_T": null, "ADA_PAVED_": null, "ADA_PARK_S": 0, "ADA_NOTES": null, "CAUTION": "SHALLOW-DRAFT VESSELS RECOMMENDED YEAR-ROUND", "FIX_PIER_N": 0, "FIX_PIER_T": null, "FLOAT_PIER": 0, "FLT_PIER_T": null, "PARK_SPACE": 10, "PARK_COVER": "UNPAVED", "LIGHTS": "N", "STREET": "41 DISNEY LN", "CITY": "TUCKASEGEE", "STATE": "NC", "ZIP": 28783, "LATITUDE": 35.247660292, "LONGITUDE": -83.128268911600003, "GAMELAND": null, "BAA": null }, "geometry": { "type": "Point", "coordinates": [ 234034.264899999, 173945.690499999 ] } },
{ "type": "Feature", "properties": { "FID": 91, "NAME": "HAYESVILLE", "ALIAS": null, "WATER_BODY": "HIWASSEE RIVER", "MAINTENANC": "WRC ANDREWS DEPOT", "COUNTY": "CLAY", "CANOE_ACCE": "Y", "PICNIC_ARE": "N", "RESTROOM": "N", "TRASH_CAN": "N", "FISH_FEED": "N", "MOTOR_REST": "Y", "ADA_DOCK_T": "N", "ADA_PAVED_": "Y", "ADA_PARK_S": 1, "ADA_NOTES": null, "CAUTION": "SHALLOW-DRAFT VESSELS RECOMMENDED YEAR-ROUND", "FIX_PIER_N": 0, "FIX_PIER_T": null, "FLOAT_PIER": 0, "FLT_PIER_T": null, "PARK_SPACE": 0, "PARK_COVER": "PAVED", "LIGHTS": "N", "STREET": "17 RIVER GLEN LN", "CITY": "HAYESVILLE", "STATE": "NC", "ZIP": 28904, "LATITUDE": 35.055984938599998, "LONGITUDE": -83.816206878900005, "GAMELAND": null, "BAA": null }, "geometry": { "type": "Point", "coordinates": [ 170463.927000001, 155527.640900001 ] } },
{ "type": "Feature", "properties": { "FID": 92, "NAME": "UWARRIE RIVER", "ALIAS": "CAPEL", "WATER_BODY": "UWHARRIE RIVER", "MAINTENANC": "WRC HYDRO DEPOT", "COUNTY": "MONTGOMERY", "CANOE_ACCE": "Y", "PICNIC_ARE": "N", "RESTROOM": "N", "TRASH_CAN": "N", "FISH_FEED": "N", "MOTOR_REST": "N", "ADA_DOCK_T": "Y", "ADA_PAVED_": "Y", "ADA_PARK_S": 1, "ADA_NOTES": null, "CAUTION": null, "FIX_PIER_N": 1, "FIX_PIER_T": "L", "FLOAT_PIER": 0, "FLT_PIER_T": null, "PARK_SPACE": 20, "PARK_COVER": "UNPAVED", "LIGHTS": "N", "STREET": "300 DENNIS RD", "CITY": "TROY", "STATE": "NC", "ZIP": 27371, "LATITUDE": 35.386272401699998, "LONGITUDE": -80.041170873799999, "GAMELAND": "UWHARRIE", "BAA": null }, "geometry": { "type": "Point", "coordinates": [ 515016.982500002, 182007.946699999 ] } },
{ "type": "Feature", "properties": { "FID": 93, "NAME": "COLD MOUNTAIN 2", "ALIAS": "SHOOTING RANGE HWY 215", "WATER_BODY": "WEST FORK PIGEON RIVER (LEFT PRONG)", "MAINTENANC": "WRC BALSAM DEPOT", "COUNTY": "HAYWOOD", "CANOE_ACCE": "N", "PICNIC_ARE": "N", "RESTROOM": "N", "TRASH_CAN": "N", "FISH_FEED": "N", "MOTOR_REST": "N", "ADA_DOCK_T": "N", "ADA_PAVED_": "N", "ADA_PARK_S": 0, "ADA_NOTES": null, "CAUTION": "BANK ACCESS ONLY.", "FIX_PIER_N": 0, "FIX_PIER_T": null, "FLOAT_PIER": 0, "FLT_PIER_T": null, "PARK_SPACE": 20, "PARK_COVER": "UNPAVED", "LIGHTS": "Y", "STREET": "NC HWY 215", "CITY": "CANTON", "STATE": "NC", "ZIP": 0, "LATITUDE": 35.382516721999998, "LONGITUDE": -82.939638988599995, "GAMELAND": "COLD MOUNTAIN", "BAA": null }, "geometry": { "type": "Point", "coordinates": [ 251779.0854, 188196.501800001 ] } },
{ "type": "Feature", "properties": { "FID": 94, "NAME": "CANE RIVER PARK", "ALIAS": null, "WATER_BODY": "CANE RIVER", "MAINTENANC": "WRC BURNSVILLE DEPOT", "COUNTY": "YANCEY", "CANOE_ACCE": "N", "PICNIC_ARE": "N", "RESTROOM": "N", "TRASH_CAN": "N", "FISH_FEED": "N", "MOTOR_REST": "N", "ADA_DOCK_T": "N", "ADA_PAVED_": "Y", "ADA_PARK_S": 1, "ADA_NOTES": "1 TRVL PARKING SPACE", "CAUTION": null, "FIX_PIER_N": 1, "FIX_PIER_T": "T", "FLOAT_PIER": 0, "FLT_PIER_T": null, "PARK_SPACE": 6, "PARK_COVER": "UNPAVED", "LIGHTS": "N", "STREET": "258 WHITTINGTON RD", "CITY": "BURNSVILLE", "STATE": "NC", "ZIP": 28714, "LATITUDE": 35.915054914199999, "LONGITUDE": -82.382434148300007, "GAMELAND": null, "BAA": null }, "geometry": { "type": "Point", "coordinates": [ 304379.303000003, 245376.264400002 ] } },
{ "type": "Feature", "properties": { "FID": 95, "NAME": "STONY MOUNTAIN", "ALIAS": null, "WATER_BODY": "LAKE TILLERY", "MAINTENANC": "WRC HYDRO DEPOT", "COUNTY": "STANLY", "CANOE_ACCE": "N", "PICNIC_ARE": "N", "RESTROOM": "N", "TRASH_CAN": "N", "FISH_FEED": "N", "MOTOR_REST": "N", "ADA_DOCK_T": "N", "ADA_PAVED_": "Y", "ADA_PARK_S": 2, "ADA_NOTES": "ADA PARKING NEAR THE BAA", "CAUTION": null, "FIX_PIER_N": 0, "FIX_PIER_T": null, "FLOAT_PIER": 1, "FLT_PIER_T": "T", "PARK_SPACE": 0, "PARK_COVER": "PAVED", "LIGHTS": "N", "STREET": "22682-A LAKE TILLERY RD", "CITY": "ALBEMARLE", "STATE": "NC", "ZIP": 28001, "LATITUDE": 35.290613480899999, "LONGITUDE": -80.097011997899997, "GAMELAND": null, "BAA": "STONY MOUNTAIN" }, "geometry": { "type": "Point", "coordinates": [ 509827.081500001, 171451.515700001 ] } },
{ "type": "Feature", "properties": { "FID": 96, "NAME": "SUNSET HARBOR", "ALIAS": null, "WATER_BODY": "INTRACOASTAL WATERWAY", "MAINTENANC": "WRC BOLIVIA DEPOT", "COUNTY": "BRUNSWICK", "CANOE_ACCE": "Y", "PICNIC_ARE": "N", "RESTROOM": "N", "TRASH_CAN": "Y", "FISH_FEED": "N", "MOTOR_REST": "N", "ADA_DOCK_T": "N", "ADA_PAVED_": "Y", "ADA_PARK_S": 0, "ADA_NOTES": null, "CAUTION": null, "FIX_PIER_N": 1, "FIX_PIER_T": "T", "FLOAT_PIER": 0, "FLT_PIER_T": null, "PARK_SPACE": 0, "PARK_COVER": "PAVED", "LIGHTS": null, "STREET": "356 RIVERVIEW DR SE", "CITY": "BOLIVIA", "STATE": "NC", "ZIP": 28422, "LATITUDE": 33.922604547, "LONGITUDE": -78.2130258328, "GAMELAND": null, "BAA": "SUNSET HARBOR" }, "geometry": { "type": "Point", "coordinates": [ 682380.885399997, 19437.0346999988 ] } },
{ "type": "Feature", "properties": { "FID": 97, "NAME": "BEAVER CREEK", "ALIAS": "LITTLE BEAVER CREEK", "WATER_BODY": "JORDAN LAKE", "MAINTENANC": "WRC JORDAN DEPOT", "COUNTY": "CHATHAM", "CANOE_ACCE": "N", "PICNIC_ARE": "N", "RESTROOM": "N", "TRASH_CAN": "N", "FISH_FEED": "N", "MOTOR_REST": "N", "ADA_DOCK_T": "Y", "ADA_PAVED_": "Y", "ADA_PARK_S": 1, "ADA_NOTES": "1 SGLV PARKING SPACE, PAVED WALKWAY", "CAUTION": null, "FIX_PIER_N": 0, "FIX_PIER_T": null, "FLOAT_PIER": 1, "FLT_PIER_T": "T", "PARK_SPACE": 8, "PARK_COVER": "UNPAVED", "LIGHTS": "N", "STREET": "3186 BEAVER CREEK RD", "CITY": "NEW HILL", "STATE": "NC", "ZIP": 27562, "LATITUDE": 35.695477300500002, "LONGITUDE": -79.015145585699997, "GAMELAND": "JORDAN", "BAA": null }, "geometry": { "type": "Point", "coordinates": [ 608230.5411000031, 215814.583099999 ] } }
]
}
